{"type": "FeatureCollection", "features": [{"type": "Feature", "geometry": {"type": "Point", "coordinates": [35.52956, -18.66569]}, "properties": {"id": 1, "name": "Mozambique", "type": "point", "spatial_accuracy": "COUNTRY", "deal_id": 4749, "country": "Mozambique", "region": "Africa"}}, {"type": "Feature", "geometry": {"type": "Point", "coordinates": [33.03564, -18.53806]}, "properties": {"id": 1, "name": "Mavonde, Mozambique", "type": "point", "spatial_accuracy": "ADMINISTRATIVE_REGION", "deal_id": 1523, "country": "Mozambique", "region": "Africa"}}, {"type": "Feature", "geometry": {"type": "Point", "coordinates": [33.3977, -19.97493]}, "properties": {"id": 2, "name": "Dombe, Mozambique", "type": "point", "spatial_accuracy": "ADMINISTRATIVE_REGION", "deal_id": 1523, "country": "Mozambique", "region": "Africa"}}, {"type": "Feature", "geometry": {"type": "Point", "coordinates": [34.06355, -18.51019]}, "properties": {"id": 3, "name": "Vanduzi, Mozambique", "type": "point", "spatial_accuracy": "ADMINISTRATIVE_REGION", "deal_id": 1523, "country": "Mozambique", "region": "Africa"}}, {"type": "Feature", "geometry": {"type": "Point", "coordinates": [35.28763, 11.26953]}, "properties": {"id": 1, "name": "Guba, Ethiopia", "type": "point", "spatial_accuracy": "ADMINISTRATIVE_REGION", "deal_id": 1242, "country": "Ethiopia", "region": "Africa"}}, {"type": "Feature", "geometry": {"type": "Point", "coordinates": [33.3977, -19.97493]}, "properties": {"id": 1, "name": "Dombe, Mozambique", "type": "point", "spatial_accuracy": "ADMINISTRATIVE_REGION", "deal_id": 4750, "country": "Mozambique", "region": "Africa"}}, {"type": "Feature", "geometry": {"type": "Point", "coordinates": [36.83579, 7.67389]}, "properties": {"id": 1, "name": "Jimma, Ethiopia", "type": "point", "spatial_accuracy": "ADMINISTRATIVE_REGION", "deal_id": 1246, "country": "Ethiopia", "region": "Africa"}}, {"type": "Feature", "geometry": {"type": "Point", "coordinates": [22.91723, -1.05617]}, "properties": {"id": 1, "name": "Yalusaka, Democratic Republic of the Congo", "type": "point", "spatial_accuracy": "ADMINISTRATIVE_REGION", "deal_id": 3215, "country": "Congo, Dem. Rep.", "region": "Africa"}}, {"type": "Feature", "geometry": {"type": "Point", "coordinates": [-1.16708, 9.16125]}, "properties": {"id": 1, "name": "Yapei, Ghana", "type": "point", "spatial_accuracy": "ADMINISTRATIVE_REGION", "deal_id": 8456, "country": "Ghana", "region": "Africa"}}, {"type": "Feature", "geometry": {"type": "Point", "coordinates": [35.41907, -12.98944]}, "properties": {"id": 1, "name": "Lichinga, Mozambique", "type": "point", "spatial_accuracy": "ADMINISTRATIVE_REGION", "deal_id": 1524, "country": "Mozambique", "region": "Africa"}}, {"type": "Feature", "geometry": {"type": "Point", "coordinates": [34.58817, 8.24478]}, "properties": {"id": 1, "name": "Gambela, Ethiopia", "type": "point", "spatial_accuracy": "ADMINISTRATIVE_REGION", "deal_id": 1250, "country": "Ethiopia", "region": "Africa"}}, {"type": "Feature", "geometry": {"type": "Point", "coordinates": [34.24216, -19.25419]}, "properties": {"id": 1, "name": "Nhamatanda, Mozambique", "type": "point", "spatial_accuracy": "ADMINISTRATIVE_REGION", "deal_id": 4751, "country": "Mozambique", "region": "Africa"}}, {"type": "Feature", "geometry": {"type": "Point", "coordinates": [39.32062, -12.33355]}, "properties": {"id": 1, "name": "Cabo Delgado, Mozambique", "type": "point", "spatial_accuracy": "ADMINISTRATIVE_REGION", "deal_id": 2283, "country": "Mozambique", "region": "Africa"}}, {"type": "Feature", "geometry": {"type": "Point", "coordinates": [7.87216, 4.92999]}, "properties": {"id": 1, "name": "Akwa Ibom, Nigeria", "type": "point", "spatial_accuracy": "ADMINISTRATIVE_REGION", "deal_id": 3676, "country": "Nigeria", "region": "Africa"}}, {"type": "Feature", "geometry": {"type": "Point", "coordinates": [35.56579, 10.78029]}, "properties": {"id": 1, "name": "Benishangul-Gumuz Region, Ethiopia", "type": "point", "spatial_accuracy": "ADMINISTRATIVE_REGION", "deal_id": 1252, "country": "Ethiopia", "region": "Africa"}}, {"type": "Feature", "geometry": {"type": "Point", "coordinates": [33.43835, -19.50598]}, "properties": {"id": 1, "name": "Manica, Mozambique", "type": "point", "spatial_accuracy": "ADMINISTRATIVE_REGION", "deal_id": 1525, "country": "Mozambique", "region": "Africa"}}, {"type": "Feature", "geometry": {"type": "Point", "coordinates": [36.95411, 6.51569]}, "properties": {"id": 1, "name": "Southern Nations, Nationalities, and People's Region, Ethiopia", "type": "point", "spatial_accuracy": "ADMINISTRATIVE_REGION", "deal_id": 1255, "country": "Ethiopia", "region": "Africa"}}, {"type": "Feature", "geometry": {"type": "Point", "coordinates": [33.19167, -25.16667]}, "properties": {"id": 1, "name": "Bilene, Mozambique", "type": "point", "spatial_accuracy": "ADMINISTRATIVE_REGION", "deal_id": 1526, "country": "Mozambique", "region": "Africa"}}, {"type": "Feature", "geometry": {"type": "Point", "coordinates": [35.38826, -23.87354]}, "properties": {"id": 2, "name": "Inhambane, Mozambique", "type": "point", "spatial_accuracy": "ADMINISTRATIVE_REGION", "deal_id": 1526, "country": "Mozambique", "region": "Africa"}}, {"type": "Feature", "geometry": {"type": "Point", "coordinates": [32.67436, -25.73938]}, "properties": {"id": 1, "name": "Marracuene District, Mozambique", "type": "point", "spatial_accuracy": "ADMINISTRATIVE_REGION", "deal_id": 4752, "country": "Mozambique", "region": "Africa"}}, {"type": "Feature", "geometry": {"type": "Point", "coordinates": [40.63469, 7.54604]}, "properties": {"id": 1, "name": "Oromia, Ethiopia", "type": "point", "spatial_accuracy": "ADMINISTRATIVE_REGION", "deal_id": 1264, "country": "Ethiopia", "region": "Africa"}}, {"type": "Feature", "geometry": {"type": "Point", "coordinates": [35.34388, -23.87296]}, "properties": {"id": 1, "name": "Maxixe, Mozambique", "type": "point", "spatial_accuracy": "ADMINISTRATIVE_REGION", "deal_id": 1527, "country": "Mozambique", "region": "Africa"}}, {"type": "Feature", "geometry": {"type": "Point", "coordinates": [36.95411, 6.51569]}, "properties": {"id": 1, "name": "Southern Nations, Nationalities, and People's Region, Ethiopia", "type": "point", "spatial_accuracy": "ADMINISTRATIVE_REGION", "deal_id": 1266, "country": "Ethiopia", "region": "Africa"}}, {"type": "Feature", "geometry": {"type": "Point", "coordinates": [36.95411, 6.51569]}, "properties": {"id": 1, "name": "Southern Nations, Nationalities, and People's Region, Ethiopia", "type": "point", "spatial_accuracy": "ADMINISTRATIVE_REGION", "deal_id": 1268, "country": "Ethiopia", "region": "Africa"}}, {"type": "Feature", "geometry": {"type": "Point", "coordinates": [-9.35563, 11.57075]}, "properties": {"id": 1, "name": "Siguiri, Guinea", "type": "point", "spatial_accuracy": "EXACT_LOCATION", "deal_id": 7011, "country": "Guinea", "region": "Africa"}}, {"type": "Feature", "geometry": {"type": "Point", "coordinates": [34.86104, -19.84412]}, "properties": {"id": 1, "name": "Palmeiras, Beira, Mozambique", "type": "point", "spatial_accuracy": "ADMINISTRATIVE_REGION", "deal_id": 1528, "country": "Mozambique", "region": "Africa"}}, {"type": "Feature", "geometry": {"type": "Point", "coordinates": [-10.84824, 7.96904]}, "properties": {"id": 1, "name": "Daru, Sierra Leone", "type": "point", "spatial_accuracy": "COORDINATES", "deal_id": 1817, "country": "Sierra Leone", "region": "Africa"}}, {"type": "Feature", "geometry": {"type": "Point", "coordinates": [-10.919, 7.86958]}, "properties": {"id": 2, "name": "Kenema, Sierra Leone", "type": "point", "spatial_accuracy": "EXACT_LOCATION", "deal_id": 1817, "country": "Sierra Leone", "region": "Africa"}}, {"type": "Feature", "geometry": {"type": "Point", "coordinates": [-10.81492, 8.17259]}, "properties": {"id": 3, "name": "Malema, Sierra Leone", "type": "point", "spatial_accuracy": "APPROXIMATE_LOCATION", "deal_id": 1817, "country": "Sierra Leone", "region": "Africa"}}, {"type": "Feature", "geometry": {"type": "Point", "coordinates": [34.75, -19.61667]}, "properties": {"id": 1, "name": "Dondo, Mozambique", "type": "point", "spatial_accuracy": "ADMINISTRATIVE_REGION", "deal_id": 1529, "country": "Mozambique", "region": "Africa"}}, {"type": "Feature", "geometry": {"type": "Point", "coordinates": [39.64407, 12.7992]}, "properties": {"id": 1, "name": "Mehoni, Ethiopia", "type": "point", "spatial_accuracy": "ADMINISTRATIVE_REGION", "deal_id": 1272, "country": "Ethiopia", "region": "Africa"}}, {"type": "Feature", "geometry": {"type": "Point", "coordinates": [57.60637, -20.37072]}, "properties": {"id": 1, "name": "Cluny, Mauritius", "type": "point", "spatial_accuracy": "ADMINISTRATIVE_REGION", "deal_id": 2289, "country": "Mauritius", "region": "Africa"}}, {"type": "Feature", "geometry": {"type": "Point", "coordinates": [33.80955, -16.17998]}, "properties": {"id": 1, "name": "Moatize, Mozambique", "type": "point", "spatial_accuracy": "EXACT_LOCATION", "deal_id": 3441, "country": "Mozambique", "region": "Africa"}}, {"type": "Feature", "geometry": {"type": "Point", "coordinates": [36.88722, -17.87639]}, "properties": {"id": 1, "name": "Quelimane, Mozambique", "type": "point", "spatial_accuracy": "ADMINISTRATIVE_REGION", "deal_id": 1535, "country": "Mozambique", "region": "Africa"}}, {"type": "Feature", "geometry": {"type": "Point", "coordinates": [-12.45042, 8.65499]}, "properties": {"id": 1, "name": "Masimera, Sierra Leone", "type": "point", "spatial_accuracy": "EXACT_LOCATION", "deal_id": 1820, "country": "Sierra Leone", "region": "Africa"}}, {"type": "Feature", "geometry": {"type": "Point", "coordinates": [36.88722, -17.87639]}, "properties": {"id": 1, "name": "Quelimane, Mozambique", "type": "point", "spatial_accuracy": "ADMINISTRATIVE_REGION", "deal_id": 1538, "country": "Mozambique", "region": "Africa"}}, {"type": "Feature", "geometry": {"type": "Point", "coordinates": [43.79085, 6.66123]}, "properties": {"id": 1, "name": "Somali, Ethiopia", "type": "point", "spatial_accuracy": "ADMINISTRATIVE_REGION", "deal_id": 1274, "country": "Ethiopia", "region": "Africa"}}, {"type": "Feature", "geometry": {"type": "Point", "coordinates": [34.06667, -18.68333]}, "properties": {"id": 1, "name": "Gorongosa, Mozambique", "type": "point", "spatial_accuracy": "ADMINISTRATIVE_REGION", "deal_id": 3442, "country": "Mozambique", "region": "Africa"}}, {"type": "Feature", "geometry": {"type": "Point", "coordinates": [41.60118, 8.80803]}, "properties": {"id": 1, "name": "East Hararghe, Ethiopia", "type": "point", "spatial_accuracy": "ADMINISTRATIVE_REGION", "deal_id": 1278, "country": "Ethiopia", "region": "Africa"}}, {"type": "Feature", "geometry": {"type": "Point", "coordinates": [32.246, -25.604]}, "properties": {"id": 1, "name": "Moamba, Mozambique", "type": "point", "spatial_accuracy": "ADMINISTRATIVE_REGION", "deal_id": 1543, "country": "Mozambique", "region": "Africa"}}, {"type": "Feature", "geometry": {"type": "Point", "coordinates": [36.98097, -15.47149]}, "properties": {"id": 1, "name": "Gurue, Mozambique", "type": "point", "spatial_accuracy": "ADMINISTRATIVE_REGION", "deal_id": 1545, "country": "Mozambique", "region": "Africa"}}, {"type": "Feature", "geometry": {"type": "Point", "coordinates": [35.77208, -16.09683]}, "properties": {"id": 2, "name": "Milange, Mozambique", "type": "point", "spatial_accuracy": "ADMINISTRATIVE_REGION", "deal_id": 1545, "country": "Mozambique", "region": "Africa"}}, {"type": "Feature", "geometry": {"type": "Point", "coordinates": [36.86621, -15.95602]}, "properties": {"id": 3, "name": "Namarr\u00f3i, Mozambique", "type": "point", "spatial_accuracy": "ADMINISTRATIVE_REGION", "deal_id": 1545, "country": "Mozambique", "region": "Africa"}}, {"type": "Feature", "geometry": {"type": "Point", "coordinates": [36.96485, -16.84022]}, "properties": {"id": 4, "name": "Mocuba, Mozambique", "type": "point", "spatial_accuracy": "ADMINISTRATIVE_REGION", "deal_id": 1545, "country": "Mozambique", "region": "Africa"}}, {"type": "Feature", "geometry": {"type": "Point", "coordinates": [57.56177, -20.45038]}, "properties": {"id": 1, "name": "Britannia, Mauritius", "type": "point", "spatial_accuracy": "APPROXIMATE_LOCATION", "deal_id": 2290, "country": "Mauritius", "region": "Africa"}}, {"type": "Feature", "geometry": {"type": "Point", "coordinates": [57.58938, -20.48445]}, "properties": {"id": 2, "name": "Benares, Mauritius", "type": "point", "spatial_accuracy": "APPROXIMATE_LOCATION", "deal_id": 2290, "country": "Mauritius", "region": "Africa"}}, {"type": "Feature", "geometry": {"type": "Point", "coordinates": [57.67541, -20.45232]}, "properties": {"id": 3, "name": "Mon Desert, Mauritius", "type": "point", "spatial_accuracy": "APPROXIMATE_LOCATION", "deal_id": 2290, "country": "Mauritius", "region": "Africa"}}, {"type": "Feature", "geometry": {"type": "Point", "coordinates": [57.48536, -20.30549]}, "properties": {"id": 4, "name": "Plaines Wilhems District, Mauritius", "type": "point", "spatial_accuracy": "APPROXIMATE_LOCATION", "deal_id": 2290, "country": "Mauritius", "region": "Africa"}}, {"type": "Feature", "geometry": {"type": "Point", "coordinates": [31.5741, -26.19707]}, "properties": {"id": 1, "name": "Croydon, Swaziland", "type": "point", "spatial_accuracy": "ADMINISTRATIVE_REGION", "deal_id": 1825, "country": "Swaziland", "region": "Africa"}}, {"type": "Feature", "geometry": {"type": "Point", "coordinates": [31.57125, -27.21368]}, "properties": {"id": 2, "name": "Hluti, Swaziland", "type": "point", "spatial_accuracy": "ADMINISTRATIVE_REGION", "deal_id": 1825, "country": "Swaziland", "region": "Africa"}}, {"type": "Feature", "geometry": {"type": "Point", "coordinates": [30.94981, 18.05247]}, "properties": {"id": 1, "name": "Al Dabbah, Sudan", "type": "point", "spatial_accuracy": "ADMINISTRATIVE_REGION", "deal_id": 2293, "country": "Sudan", "region": "Africa"}}, {"type": "Feature", "geometry": {"type": "Point", "coordinates": [40.63469, 7.54604]}, "properties": {"id": 1, "name": "Oromia, Ethiopia", "type": "point", "spatial_accuracy": "ADMINISTRATIVE_REGION", "deal_id": 1285, "country": "Ethiopia", "region": "Africa"}}, {"type": "Feature", "geometry": {"type": "Point", "coordinates": [12.78955, -0.13501]}, "properties": {"id": 1, "name": "Lastoursville, Gabon", "type": "point", "spatial_accuracy": "COORDINATES", "deal_id": 5032, "country": "Gabon", "region": "Africa"}}, {"type": "Feature", "geometry": {"type": "Point", "coordinates": [13.13081, -0.50116]}, "properties": {"id": 2, "name": "Lassio River, Gabon", "type": "point", "spatial_accuracy": "COORDINATES", "deal_id": 5032, "country": "Gabon", "region": "Africa"}}, {"type": "Feature", "geometry": {"type": "Point", "coordinates": [10.53575, -0.92118]}, "properties": {"id": 3, "name": "Ngounie, Gabon", "type": "point", "spatial_accuracy": "COORDINATES", "deal_id": 5032, "country": "Gabon", "region": "Africa"}}, {"type": "Feature", "geometry": {"type": "Point", "coordinates": [12.01002, -1.88082]}, "properties": {"id": 4, "name": "Ngounie, Gabon", "type": "point", "spatial_accuracy": "COORDINATES", "deal_id": 5032, "country": "Gabon", "region": "Africa"}}, {"type": "Feature", "geometry": {"type": "Point", "coordinates": [12.23589, -2.2686]}, "properties": {"id": 5, "name": "Ngounie, Gabon", "type": "point", "spatial_accuracy": "COORDINATES", "deal_id": 5032, "country": "Gabon", "region": "Africa"}}, {"type": "Feature", "geometry": {"type": "Point", "coordinates": [10.64459, -2.11594]}, "properties": {"id": 6, "name": "Ngounie, Gabon", "type": "point", "spatial_accuracy": "COORDINATES", "deal_id": 5032, "country": "Gabon", "region": "Africa"}}, {"type": "Feature", "geometry": {"type": "Point", "coordinates": [6.17524, 10.0805]}, "properties": {"id": 1, "name": "Tegina, Nigeria", "type": "point", "spatial_accuracy": "ADMINISTRATIVE_REGION", "deal_id": 4753, "country": "Nigeria", "region": "Africa"}}, {"type": "Feature", "geometry": {"type": "Point", "coordinates": [31.34874, -26.50369]}, "properties": {"id": 1, "name": "MR9, Swaziland", "type": "point", "spatial_accuracy": "ADMINISTRATIVE_REGION", "deal_id": 1827, "country": "Swaziland", "region": "Africa"}}, {"type": "Feature", "geometry": {"type": "Point", "coordinates": [40.68887, -14.56477]}, "properties": {"id": 1, "name": "Nacala, Mozambique", "type": "point", "spatial_accuracy": "ADMINISTRATIVE_REGION", "deal_id": 1548, "country": "Mozambique", "region": "Africa"}}, {"type": "Feature", "geometry": {"type": "Point", "coordinates": [32.87556, -18.93444]}, "properties": {"id": 1, "name": "Manica, Mozambique", "type": "point", "spatial_accuracy": "ADMINISTRATIVE_REGION", "deal_id": 3893, "country": "Mozambique", "region": "Africa"}}, {"type": "Feature", "geometry": {"type": "Point", "coordinates": [40.48967, 9.145]}, "properties": {"id": 1, "name": "Ethiopia", "type": "point", "spatial_accuracy": "COUNTRY", "deal_id": 1288, "country": "Ethiopia", "region": "Africa"}}, {"type": "Feature", "geometry": {"type": "Point", "coordinates": [5.39396, 10.21554]}, "properties": {"id": 1, "name": "Niger, Nigeria", "type": "point", "spatial_accuracy": "ADMINISTRATIVE_REGION", "deal_id": 4754, "country": "Nigeria", "region": "Africa"}}, {"type": "Feature", "geometry": {"type": "Point", "coordinates": [35.38826, -23.87354]}, "properties": {"id": 1, "name": "Inhambane, Mozambique", "type": "point", "spatial_accuracy": "ADMINISTRATIVE_REGION", "deal_id": 1554, "country": "Mozambique", "region": "Africa"}}, {"type": "Feature", "geometry": {"type": "Point", "coordinates": [31.93024, -26.7816]}, "properties": {"id": 1, "name": "Big Bend, Eswatini", "type": "point", "spatial_accuracy": "APPROXIMATE_LOCATION", "deal_id": 1829, "country": "Swaziland", "region": "Africa"}}, {"type": "Feature", "geometry": {"type": "Point", "coordinates": [12.06514, 5.3218]}, "properties": {"id": 1, "name": "Yoko, Cameroon", "type": "point", "spatial_accuracy": "COORDINATES", "deal_id": 7411, "country": "Cameroon", "region": "Africa"}}, {"type": "Feature", "geometry": {"type": "Point", "coordinates": [35.23962, -13.30037]}, "properties": {"id": 1, "name": "Lichinga, Mozambique", "type": "point", "spatial_accuracy": "ADMINISTRATIVE_REGION", "deal_id": 3443, "country": "Mozambique", "region": "Africa"}}, {"type": "Feature", "geometry": {"type": "Point", "coordinates": [37.23333, 6.91667]}, "properties": {"id": 1, "name": "Bale, Ethiopia", "type": "point", "spatial_accuracy": "ADMINISTRATIVE_REGION", "deal_id": 1297, "country": "Ethiopia", "region": "Africa"}}, {"type": "Feature", "geometry": {"type": "Point", "coordinates": [32.53727, -25.25699]}, "properties": {"id": 1, "name": "Maputo, Mozambique", "type": "point", "spatial_accuracy": "ADMINISTRATIVE_REGION", "deal_id": 1559, "country": "Mozambique", "region": "Africa"}}, {"type": "Feature", "geometry": {"type": "Point", "coordinates": [31.8164, 18.46894]}, "properties": {"id": 1, "name": "Merowe, Sudan", "type": "point", "spatial_accuracy": "ADMINISTRATIVE_REGION", "deal_id": 2297, "country": "Sudan", "region": "Africa"}}, {"type": "Feature", "geometry": {"type": "Point", "coordinates": [11.06627, 0.07265]}, "properties": {"id": 1, "name": "Mevang, Gabon", "type": "point", "spatial_accuracy": "ADMINISTRATIVE_REGION", "deal_id": 5033, "country": "Gabon", "region": "Africa"}}, {"type": "Feature", "geometry": {"type": "Point", "coordinates": [12.98961, 0.73401]}, "properties": {"id": 2, "name": "Ivindo, Gabon", "type": "point", "spatial_accuracy": "ADMINISTRATIVE_REGION", "deal_id": 5033, "country": "Gabon", "region": "Africa"}}, {"type": "Feature", "geometry": {"type": "Point", "coordinates": [13.60155, -1.61964]}, "properties": {"id": 3, "name": "Franceville, Gabon", "type": "point", "spatial_accuracy": "ADMINISTRATIVE_REGION", "deal_id": 5033, "country": "Gabon", "region": "Africa"}}, {"type": "Feature", "geometry": {"type": "Point", "coordinates": [31.92509, -26.75169]}, "properties": {"id": 1, "name": "Big Bend, Swaziland", "type": "point", "spatial_accuracy": "COORDINATES", "deal_id": 1830, "country": "Swaziland", "region": "Africa"}}, {"type": "Feature", "geometry": {"type": "Point", "coordinates": [36.26308, 5.45091]}, "properties": {"id": 1, "name": "Omo, Ethiopia", "type": "point", "spatial_accuracy": "ADMINISTRATIVE_REGION", "deal_id": 1302, "country": "Ethiopia", "region": "Africa"}}, {"type": "Feature", "geometry": {"type": "Point", "coordinates": [32.66755, -26.3411]}, "properties": {"id": 1, "name": "Bela Vista, Mozambique", "type": "point", "spatial_accuracy": "EXACT_LOCATION", "deal_id": 1562, "country": "Mozambique", "region": "Africa"}}, {"type": "Feature", "geometry": {"type": "Point", "coordinates": [36.75097, -16.42912]}, "properties": {"id": 1, "name": "Lugela, Mozambique", "type": "point", "spatial_accuracy": "ADMINISTRATIVE_REGION", "deal_id": 1563, "country": "Mozambique", "region": "Africa"}}, {"type": "Feature", "geometry": {"type": "Point", "coordinates": [31.31413, -26.50095]}, "properties": {"id": 1, "name": "Matsapha, Eswatini", "type": "point", "spatial_accuracy": "ADMINISTRATIVE_REGION", "deal_id": 1831, "country": "Swaziland", "region": "Africa"}}, {"type": "Feature", "geometry": {"type": "Point", "coordinates": [35.30272, -18.53493]}, "properties": {"id": 1, "name": "Cheringoma, Mozambique", "type": "point", "spatial_accuracy": "ADMINISTRATIVE_REGION", "deal_id": 1564, "country": "Mozambique", "region": "Africa"}}, {"type": "Feature", "geometry": {"type": "Point", "coordinates": [35.12688, 7.31874]}, "properties": {"id": 1, "name": "Godere, Ethiopia", "type": "point", "spatial_accuracy": "ADMINISTRATIVE_REGION", "deal_id": 1303, "country": "Ethiopia", "region": "Africa"}}, {"type": "Feature", "geometry": {"type": "Point", "coordinates": [1.1927, 7.71008]}, "properties": {"id": 1, "name": "Anie, Togo", "type": "point", "spatial_accuracy": "COORDINATES", "deal_id": 1832, "country": "Togo", "region": "Africa"}}, {"type": "Feature", "geometry": {"type": "Point", "coordinates": [32.246, -25.604]}, "properties": {"id": 1, "name": "Moamba, Mozambique", "type": "point", "spatial_accuracy": "ADMINISTRATIVE_REGION", "deal_id": 1565, "country": "Mozambique", "region": "Africa"}}, {"type": "Feature", "geometry": {"type": "Point", "coordinates": [21.60445, 2.51477]}, "properties": {"id": 1, "name": "Lisala, Democratic Republic of the Congo", "type": "point", "spatial_accuracy": "COORDINATES", "deal_id": 8457, "country": "Congo, Dem. Rep.", "region": "Africa"}}, {"type": "Feature", "geometry": {"type": "Point", "coordinates": [26.30764, -10.75729]}, "properties": {"id": 1, "name": "Kakanda, Democratic Republic of the Congo", "type": "point", "spatial_accuracy": "EXACT_LOCATION", "deal_id": 5034, "country": "Congo, Dem. Rep.", "region": "Africa"}}, {"type": "Feature", "geometry": {"type": "Point", "coordinates": [31.05127, 5.65267]}, "properties": {"id": 1, "name": "Tindalo, South Sudan", "type": "point", "spatial_accuracy": "APPROXIMATE_LOCATION", "deal_id": 2309, "country": "South Sudan", "region": "Africa"}}, {"type": "Feature", "geometry": {"type": "Point", "coordinates": [36.18333, 11.75]}, "properties": {"id": 1, "name": "Dangur, Ethiopia", "type": "point", "spatial_accuracy": "ADMINISTRATIVE_REGION", "deal_id": 1304, "country": "Ethiopia", "region": "Africa"}}, {"type": "Feature", "geometry": {"type": "Point", "coordinates": [35.28763, 11.26953]}, "properties": {"id": 2, "name": "Guba, Ethiopia", "type": "point", "spatial_accuracy": "ADMINISTRATIVE_REGION", "deal_id": 1304, "country": "Ethiopia", "region": "Africa"}}, {"type": "Feature", "geometry": {"type": "Point", "coordinates": [37.70372, -7.42645]}, "properties": {"id": 1, "name": "Dakawa, Tanzania", "type": "point", "spatial_accuracy": "ADMINISTRATIVE_REGION", "deal_id": 1834, "country": "Tanzania", "region": "Africa"}}, {"type": "Feature", "geometry": {"type": "Point", "coordinates": [36.49593, 8.75066]}, "properties": {"id": 1, "name": "Arjo, Ethiopia", "type": "point", "spatial_accuracy": "ADMINISTRATIVE_REGION", "deal_id": 1305, "country": "Ethiopia", "region": "Africa"}}, {"type": "Feature", "geometry": {"type": "Point", "coordinates": [39.26667, -15.11667]}, "properties": {"id": 1, "name": "Nampula, Mozambique", "type": "point", "spatial_accuracy": "ADMINISTRATIVE_REGION", "deal_id": 1570, "country": "Mozambique", "region": "Africa"}}, {"type": "Feature", "geometry": {"type": "Point", "coordinates": [26.43341, -12.0937]}, "properties": {"id": 1, "name": "Solwezi, Zambia", "type": "point", "spatial_accuracy": "EXACT_LOCATION", "deal_id": 4755, "country": "Zambia", "region": "Africa"}}, {"type": "Feature", "geometry": {"type": "Point", "coordinates": [37.11667, 4.43333]}, "properties": {"id": 1, "name": "Dima, Ethiopia", "type": "point", "spatial_accuracy": "ADMINISTRATIVE_REGION", "deal_id": 1306, "country": "Ethiopia", "region": "Africa"}}, {"type": "Feature", "geometry": {"type": "Point", "coordinates": [33.32055, 19.53564]}, "properties": {"id": 1, "name": "Abu Hamad, Sudan", "type": "point", "spatial_accuracy": "ADMINISTRATIVE_REGION", "deal_id": 2313, "country": "Sudan", "region": "Africa"}}, {"type": "Feature", "geometry": {"type": "Point", "coordinates": [11.93928, 2.698]}, "properties": {"id": 1, "name": "Mvangane, Cameroon", "type": "point", "spatial_accuracy": "COORDINATES", "deal_id": 7412, "country": "Cameroon", "region": "Africa"}}, {"type": "Feature", "geometry": {"type": "Point", "coordinates": [31.06944, -6.34472]}, "properties": {"id": 1, "name": "Mpanda, Tanzania", "type": "point", "spatial_accuracy": "ADMINISTRATIVE_REGION", "deal_id": 1836, "country": "Tanzania", "region": "Africa"}}, {"type": "Feature", "geometry": {"type": "Point", "coordinates": [12.97016, -0.74205]}, "properties": {"id": 1, "name": "Unnamed Road, Ndekabalandji, Gabon", "type": "point", "spatial_accuracy": "COORDINATES", "deal_id": 8458, "country": "Gabon", "region": "Africa"}}, {"type": "Feature", "geometry": {"type": "Point", "coordinates": [37.38272, -16.16774]}, "properties": {"id": 1, "name": "Ile, Mozambique", "type": "point", "spatial_accuracy": "ADMINISTRATIVE_REGION", "deal_id": 1571, "country": "Mozambique", "region": "Africa"}}, {"type": "Feature", "geometry": {"type": "Point", "coordinates": [47.02101, -24.95458]}, "properties": {"id": 1, "name": "Taolagnaro, Madagascar", "type": "point", "spatial_accuracy": "EXACT_LOCATION", "deal_id": 5035, "country": "Madagascar", "region": "Africa"}}, {"type": "Feature", "geometry": {"type": "Point", "coordinates": [-13.25769, 15.66002]}, "properties": {"id": 1, "name": "Matam, S\u00e9n\u00e9gal", "type": "point", "spatial_accuracy": "ADMINISTRATIVE_REGION", "deal_id": 8080, "country": "Senegal", "region": "Africa"}}, {"type": "Feature", "geometry": {"type": "Point", "coordinates": [39.27198, 8.53997]}, "properties": {"id": 1, "name": "Adama, Ethiopia", "type": "point", "spatial_accuracy": "ADMINISTRATIVE_REGION", "deal_id": 1309, "country": "Ethiopia", "region": "Africa"}}, {"type": "Feature", "geometry": {"type": "Point", "coordinates": [-6.86354, 31.01067]}, "properties": {"id": 1, "name": "Ouarzazate 45000, Morocco", "type": "point", "spatial_accuracy": "EXACT_LOCATION", "deal_id": 5381, "country": "Morocco", "region": "Africa"}}, {"type": "Feature", "geometry": {"type": "Point", "coordinates": [33.43835, -19.50598]}, "properties": {"id": 1, "name": "Manica, Mozambique", "type": "point", "spatial_accuracy": "ADMINISTRATIVE_REGION", "deal_id": 4756, "country": "Mozambique", "region": "Africa"}}, {"type": "Feature", "geometry": {"type": "Point", "coordinates": [32.53727, -25.25699]}, "properties": {"id": 2, "name": "Maputo, Mozambique", "type": "point", "spatial_accuracy": "ADMINISTRATIVE_REGION", "deal_id": 4756, "country": "Mozambique", "region": "Africa"}}, {"type": "Feature", "geometry": {"type": "Point", "coordinates": [40.10853, -15.05764]}, "properties": {"id": 3, "name": "Monapo, Mozambique", "type": "point", "spatial_accuracy": "COORDINATES", "deal_id": 4756, "country": "Mozambique", "region": "Africa"}}, {"type": "Feature", "geometry": {"type": "Point", "coordinates": [36.69647, -15.20172]}, "properties": {"id": 1, "name": "Lioma, Mozambique", "type": "point", "spatial_accuracy": "EXACT_LOCATION", "deal_id": 1572, "country": "Mozambique", "region": "Africa"}}, {"type": "Feature", "geometry": {"type": "Point", "coordinates": [32.807, -25.406]}, "properties": {"id": 1, "name": "Manhica, Mozambique", "type": "point", "spatial_accuracy": "ADMINISTRATIVE_REGION", "deal_id": 1573, "country": "Mozambique", "region": "Africa"}}, {"type": "Feature", "geometry": {"type": "Point", "coordinates": [34.01667, -19.81667]}, "properties": {"id": 1, "name": "Grudja, Mozambique", "type": "point", "spatial_accuracy": "EXACT_LOCATION", "deal_id": 1575, "country": "Mozambique", "region": "Africa"}}, {"type": "Feature", "geometry": {"type": "Point", "coordinates": [32.5012, 19.14081]}, "properties": {"id": 1, "name": "Nile, Sudan", "type": "point", "spatial_accuracy": "ADMINISTRATIVE_REGION", "deal_id": 2323, "country": "Sudan", "region": "Africa"}}, {"type": "Feature", "geometry": {"type": "Point", "coordinates": [36.95411, 6.51569]}, "properties": {"id": 1, "name": "Southern Nations, Nationalities, and People's Region, Ethiopia", "type": "point", "spatial_accuracy": "ADMINISTRATIVE_REGION", "deal_id": 1318, "country": "Ethiopia", "region": "Africa"}}, {"type": "Feature", "geometry": {"type": "Point", "coordinates": [40.63469, 7.54604]}, "properties": {"id": 1, "name": "Oromia, Ethiopia", "type": "point", "spatial_accuracy": "ADMINISTRATIVE_REGION", "deal_id": 1319, "country": "Ethiopia", "region": "Africa"}}, {"type": "Feature", "geometry": {"type": "Point", "coordinates": [36.12789, -8.38793]}, "properties": {"id": 1, "name": "Mngeta, Kilombero, Tanzania", "type": "point", "spatial_accuracy": "EXACT_LOCATION", "deal_id": 1839, "country": "Tanzania", "region": "Africa"}}, {"type": "Feature", "geometry": {"type": "Point", "coordinates": [32.246, -25.604]}, "properties": {"id": 1, "name": "Moamba, Mozambique", "type": "point", "spatial_accuracy": "ADMINISTRATIVE_REGION", "deal_id": 1578, "country": "Mozambique", "region": "Africa"}}, {"type": "Feature", "geometry": {"type": "Point", "coordinates": [32.90291, 0.70137]}, "properties": {"id": 1, "name": "Kayunga, Uganda", "type": "point", "spatial_accuracy": "ADMINISTRATIVE_REGION", "deal_id": 4164, "country": "Uganda", "region": "Africa"}}, {"type": "Feature", "geometry": {"type": "Point", "coordinates": [18.50451, -1.88157]}, "properties": {"id": 1, "name": "Mai-Ndombe, Democratic Republic of the Congo", "type": "point", "spatial_accuracy": "COORDINATES", "deal_id": 8906, "country": "Congo, Dem. Rep.", "region": "Africa"}}, {"type": "Feature", "geometry": {"type": "Point", "coordinates": [11.39883, 2.54093]}, "properties": {"id": 1, "name": "Ambam, Cameroon", "type": "point", "spatial_accuracy": "COORDINATES", "deal_id": 7413, "country": "Cameroon", "region": "Africa"}}, {"type": "Feature", "geometry": {"type": "Point", "coordinates": [40.16667, 8.99444]}, "properties": {"id": 1, "name": "\u0100wash, Ethiopia", "type": "point", "spatial_accuracy": "ADMINISTRATIVE_REGION", "deal_id": 1320, "country": "Ethiopia", "region": "Africa"}}, {"type": "Feature", "geometry": {"type": "Point", "coordinates": [34.75, -19.61667]}, "properties": {"id": 1, "name": "Dondo, Mozambique", "type": "point", "spatial_accuracy": "ADMINISTRATIVE_REGION", "deal_id": 1579, "country": "Mozambique", "region": "Africa"}}, {"type": "Feature", "geometry": {"type": "Point", "coordinates": [32.94095, -24.4192]}, "properties": {"id": 2, "name": "Guija, Mozambique", "type": "point", "spatial_accuracy": "ADMINISTRATIVE_REGION", "deal_id": 1579, "country": "Mozambique", "region": "Africa"}}, {"type": "Feature", "geometry": {"type": "Point", "coordinates": [33.22389, -24.59083]}, "properties": {"id": 3, "name": "Chibabel, Mozambique", "type": "point", "spatial_accuracy": "ADMINISTRATIVE_REGION", "deal_id": 1579, "country": "Mozambique", "region": "Africa"}}, {"type": "Feature", "geometry": {"type": "Point", "coordinates": [38.71667, 7.93333]}, "properties": {"id": 1, "name": "Ziway, Ethiopia", "type": "point", "spatial_accuracy": "ADMINISTRATIVE_REGION", "deal_id": 1321, "country": "Ethiopia", "region": "Africa"}}, {"type": "Feature", "geometry": {"type": "Point", "coordinates": [38.70801, 7.86506]}, "properties": {"id": 2, "name": "Adami Tullu, Ethiopia", "type": "point", "spatial_accuracy": "ADMINISTRATIVE_REGION", "deal_id": 1321, "country": "Ethiopia", "region": "Africa"}}, {"type": "Feature", "geometry": {"type": "Point", "coordinates": [39.0308, 8.43442]}, "properties": {"id": 3, "name": "Koka, Ethiopia", "type": "point", "spatial_accuracy": "ADMINISTRATIVE_REGION", "deal_id": 1321, "country": "Ethiopia", "region": "Africa"}}, {"type": "Feature", "geometry": {"type": "Point", "coordinates": [32.58333, -25.96667]}, "properties": {"id": 1, "name": "Maputo, Mozambique", "type": "point", "spatial_accuracy": "ADMINISTRATIVE_REGION", "deal_id": 1585, "country": "Mozambique", "region": "Africa"}}, {"type": "Feature", "geometry": {"type": "Point", "coordinates": [-0.71793, 8.24713]}, "properties": {"id": 1, "name": "Yeji, Ghana", "type": "point", "spatial_accuracy": "COORDINATES", "deal_id": 1322, "country": "Ghana", "region": "Africa"}}, {"type": "Feature", "geometry": {"type": "Point", "coordinates": [33.12588, 15.16027]}, "properties": {"id": 1, "name": "Wad Rawah, Sudan", "type": "point", "spatial_accuracy": "ADMINISTRATIVE_REGION", "deal_id": 2332, "country": "Sudan", "region": "Africa"}}, {"type": "Feature", "geometry": {"type": "Point", "coordinates": [32.87556, -18.93444]}, "properties": {"id": 1, "name": "Manica, Mozambique", "type": "point", "spatial_accuracy": "ADMINISTRATIVE_REGION", "deal_id": 1586, "country": "Mozambique", "region": "Africa"}}, {"type": "Feature", "geometry": {"type": "Point", "coordinates": [35.2528, -10.7161]}, "properties": {"id": 1, "name": "Ruvuma, Tanzania", "type": "point", "spatial_accuracy": "COORDINATES", "deal_id": 4757, "country": "Tanzania", "region": "Africa"}}, {"type": "Feature", "geometry": {"type": "Point", "coordinates": [24.2658, 0.78002]}, "properties": {"id": 1, "name": "Isangi, Democratic Republic of the Congo", "type": "point", "spatial_accuracy": "ADMINISTRATIVE_REGION", "deal_id": 3230, "country": "Congo, Dem. Rep.", "region": "Africa"}}, {"type": "Feature", "geometry": {"type": "Point", "coordinates": [0.57861, 6.07873]}, "properties": {"id": 1, "name": "Volta Region, Ghana", "type": "point", "spatial_accuracy": "COORDINATES", "deal_id": 1323, "country": "Ghana", "region": "Africa"}}, {"type": "Feature", "geometry": {"type": "Point", "coordinates": [40.63469, 7.54604]}, "properties": {"id": 1, "name": "Oromia, Ethiopia", "type": "point", "spatial_accuracy": "ADMINISTRATIVE_REGION", "deal_id": 4758, "country": "Ethiopia", "region": "Africa"}}, {"type": "Feature", "geometry": {"type": "Point", "coordinates": [-1.38718, 6.91894]}, "properties": {"id": 1, "name": "Nsuta,Sekyere, Ghana", "type": "point", "spatial_accuracy": "ADMINISTRATIVE_REGION", "deal_id": 1324, "country": "Ghana", "region": "Africa"}}, {"type": "Feature", "geometry": {"type": "Point", "coordinates": [-8.05013, 4.96324]}, "properties": {"id": 1, "name": "Grand Kru, Liberia", "type": "point", "spatial_accuracy": "COORDINATES", "deal_id": 3901, "country": "Liberia", "region": "Africa"}}, {"type": "Feature", "geometry": {"type": "Point", "coordinates": [-0.8842, 7.99377]}, "properties": {"id": 1, "name": "Prang, Ghana", "type": "point", "spatial_accuracy": "ADMINISTRATIVE_REGION", "deal_id": 1330, "country": "Ghana", "region": "Africa"}}, {"type": "Feature", "geometry": {"type": "Point", "coordinates": [-9.45615, 5.90253]}, "properties": {"id": 1, "name": "River Cess, Liberia", "type": "point", "spatial_accuracy": "ADMINISTRATIVE_REGION", "deal_id": 3448, "country": "Liberia", "region": "Africa"}}, {"type": "Feature", "geometry": {"type": "Point", "coordinates": [38.73682, -7.26233]}, "properties": {"id": 1, "name": "Kisarawe, Tanzania", "type": "point", "spatial_accuracy": "ADMINISTRATIVE_REGION", "deal_id": 1846, "country": "Tanzania", "region": "Africa"}}, {"type": "Feature", "geometry": {"type": "Point", "coordinates": [-0.31485, 5.80497]}, "properties": {"id": 1, "name": "Doboro, Ghana", "type": "point", "spatial_accuracy": "ADMINISTRATIVE_REGION", "deal_id": 1333, "country": "Ghana", "region": "Africa"}}, {"type": "Feature", "geometry": {"type": "Point", "coordinates": [-0.72245, 8.16652]}, "properties": {"id": 1, "name": "Yeji, Ghana", "type": "point", "spatial_accuracy": "EXACT_LOCATION", "deal_id": 1334, "country": "Ghana", "region": "Africa"}}, {"type": "Feature", "geometry": {"type": "Point", "coordinates": [-1.09377, 8.02611]}, "properties": {"id": 2, "name": "Prang, Ghana", "type": "point", "spatial_accuracy": "APPROXIMATE_LOCATION", "deal_id": 1334, "country": "Ghana", "region": "Africa"}}, {"type": "Feature", "geometry": {"type": "Point", "coordinates": [-1.39523, 7.78137]}, "properties": {"id": 3, "name": "Kumfia, Ghana", "type": "point", "spatial_accuracy": "APPROXIMATE_LOCATION", "deal_id": 1334, "country": "Ghana", "region": "Africa"}}, {"type": "Feature", "geometry": {"type": "Point", "coordinates": [-1.48883, 7.60052]}, "properties": {"id": 4, "name": "Ahyiayemu, Ghana", "type": "point", "spatial_accuracy": "APPROXIMATE_LOCATION", "deal_id": 1334, "country": "Ghana", "region": "Africa"}}, {"type": "Feature", "geometry": {"type": "Point", "coordinates": [20.00624, 1.01702]}, "properties": {"id": 1, "name": "Basankusu, Democratic Republic of the Congo", "type": "point", "spatial_accuracy": "EXACT_LOCATION", "deal_id": 3231, "country": "Congo, Dem. Rep.", "region": "Africa"}}, {"type": "Feature", "geometry": {"type": "Point", "coordinates": [20.02353, 1.07135]}, "properties": {"id": 2, "name": "Ndeke, Democratic Republic of the Congo", "type": "point", "spatial_accuracy": "ADMINISTRATIVE_REGION", "deal_id": 3231, "country": "Congo, Dem. Rep.", "region": "Africa"}}, {"type": "Feature", "geometry": {"type": "Point", "coordinates": [-1.02319, 7.94653]}, "properties": {"id": 1, "name": "Ghana", "type": "point", "spatial_accuracy": "COUNTRY", "deal_id": 1335, "country": "Ghana", "region": "Africa"}}, {"type": "Feature", "geometry": {"type": "Point", "coordinates": [31.3, 2.33333]}, "properties": {"id": 1, "name": "Kololo, Uganda", "type": "point", "spatial_accuracy": "ADMINISTRATIVE_REGION", "deal_id": 4166, "country": "Uganda", "region": "Africa"}}, {"type": "Feature", "geometry": {"type": "Point", "coordinates": [32.08374, 2.96679]}, "properties": {"id": 2, "name": "Amuru, Uganda", "type": "point", "spatial_accuracy": "ADMINISTRATIVE_REGION", "deal_id": 4166, "country": "Uganda", "region": "Africa"}}, {"type": "Feature", "geometry": {"type": "Point", "coordinates": [-1.44853, 8.8319]}, "properties": {"id": 1, "name": "Lingbinkurra, Ghana", "type": "point", "spatial_accuracy": "COORDINATES", "deal_id": 8459, "country": "Ghana", "region": "Africa"}}, {"type": "Feature", "geometry": {"type": "Point", "coordinates": [21.07287, 1.5074]}, "properties": {"id": 1, "name": "Bongandanga, Democratic Republic of the Congo", "type": "point", "spatial_accuracy": "ADMINISTRATIVE_REGION", "deal_id": 3233, "country": "Congo, Dem. Rep.", "region": "Africa"}}, {"type": "Feature", "geometry": {"type": "Point", "coordinates": [0.36071, 5.88276]}, "properties": {"id": 1, "name": "Sege, Ghana", "type": "point", "spatial_accuracy": "ADMINISTRATIVE_REGION", "deal_id": 1337, "country": "Ghana", "region": "Africa"}}, {"type": "Feature", "geometry": {"type": "Point", "coordinates": [-0.71527, 5.43543]}, "properties": {"id": 2, "name": "Gomoa, Ghana", "type": "point", "spatial_accuracy": "ADMINISTRATIVE_REGION", "deal_id": 1337, "country": "Ghana", "region": "Africa"}}, {"type": "Feature", "geometry": {"type": "Point", "coordinates": [32.58333, -25.96667]}, "properties": {"id": 1, "name": "Maputo, Mozambique", "type": "point", "spatial_accuracy": "ADMINISTRATIVE_REGION", "deal_id": 1594, "country": "Mozambique", "region": "Africa"}}, {"type": "Feature", "geometry": {"type": "Point", "coordinates": [-1.51883, 8.65319]}, "properties": {"id": 1, "name": "Buipe, Ghana", "type": "point", "spatial_accuracy": "COORDINATES", "deal_id": 1338, "country": "Ghana", "region": "Africa"}}, {"type": "Feature", "geometry": {"type": "Point", "coordinates": [20.50633, 2.34057]}, "properties": {"id": 1, "name": "Binga, Democratic Republic of the Congo", "type": "point", "spatial_accuracy": "EXACT_LOCATION", "deal_id": 3234, "country": "Congo, Dem. Rep.", "region": "Africa"}}, {"type": "Feature", "geometry": {"type": "Point", "coordinates": [9.5375, 33.88692]}, "properties": {"id": 1, "name": "Tunisia", "type": "point", "spatial_accuracy": "COUNTRY", "deal_id": 4759, "country": "Tunisia", "region": "Africa"}}, {"type": "Feature", "geometry": {"type": "Point", "coordinates": [9.64486, 4.62229]}, "properties": {"id": 1, "name": "Njomb\u00e9, Cameroon", "type": "point", "spatial_accuracy": "COORDINATES", "deal_id": 7012, "country": "Cameroon", "region": "Africa"}}, {"type": "Feature", "geometry": {"type": "Point", "coordinates": [10.07275, 3.48962]}, "properties": {"id": 2, "name": "D\u00e9han\u00e9, Cameroon", "type": "point", "spatial_accuracy": "", "deal_id": 7012, "country": "Cameroon", "region": "Africa"}}, {"type": "Feature", "geometry": {"type": "Point", "coordinates": [-1.0183, 5.26933]}, "properties": {"id": 1, "name": "Mankessim, Ghana", "type": "point", "spatial_accuracy": "ADMINISTRATIVE_REGION", "deal_id": 1339, "country": "Ghana", "region": "Africa"}}, {"type": "Feature", "geometry": {"type": "Point", "coordinates": [-0.6607, 6.65536]}, "properties": {"id": 2, "name": "Kwahu Tafo, Ghana", "type": "point", "spatial_accuracy": "ADMINISTRATIVE_REGION", "deal_id": 1339, "country": "Ghana", "region": "Africa"}}, {"type": "Feature", "geometry": {"type": "Point", "coordinates": [-0.71527, 5.43543]}, "properties": {"id": 3, "name": "Gomoa, Ghana", "type": "point", "spatial_accuracy": "ADMINISTRATIVE_REGION", "deal_id": 1339, "country": "Ghana", "region": "Africa"}}, {"type": "Feature", "geometry": {"type": "Point", "coordinates": [3.25836, 6.90983]}, "properties": {"id": 1, "name": "Ogun State, Nigeria", "type": "point", "spatial_accuracy": "ADMINISTRATIVE_REGION", "deal_id": 5040, "country": "Nigeria", "region": "Africa"}}, {"type": "Feature", "geometry": {"type": "Point", "coordinates": [35.16405, -8.48182]}, "properties": {"id": 1, "name": "Idete, Tanzania", "type": "point", "spatial_accuracy": "EXACT_LOCATION", "deal_id": 1851, "country": "Tanzania", "region": "Africa"}}, {"type": "Feature", "geometry": {"type": "Point", "coordinates": [35.76774, -8.42724]}, "properties": {"id": 2, "name": "Mapanda, Tanzania", "type": "point", "spatial_accuracy": "ADMINISTRATIVE_REGION", "deal_id": 1851, "country": "Tanzania", "region": "Africa"}}, {"type": "Feature", "geometry": {"type": "Point", "coordinates": [35.41028, -8.77152]}, "properties": {"id": 3, "name": "Uchindile, Tanzania", "type": "point", "spatial_accuracy": "ADMINISTRATIVE_REGION", "deal_id": 1851, "country": "Tanzania", "region": "Africa"}}, {"type": "Feature", "geometry": {"type": "Point", "coordinates": [12.96082, -5.00777]}, "properties": {"id": 1, "name": "Tshela, Democratic Republic of the Congo", "type": "point", "spatial_accuracy": "ADMINISTRATIVE_REGION", "deal_id": 3235, "country": "Congo, Dem. Rep.", "region": "Africa"}}, {"type": "Feature", "geometry": {"type": "Point", "coordinates": [-1.97014, 4.80408]}, "properties": {"id": 1, "name": "Dixcove, Ghana", "type": "point", "spatial_accuracy": "EXACT_LOCATION", "deal_id": 1345, "country": "Ghana", "region": "Africa"}}, {"type": "Feature", "geometry": {"type": "Point", "coordinates": [-9.71996, 5.57361]}, "properties": {"id": 1, "name": "Timbo, Liberia", "type": "point", "spatial_accuracy": "ADMINISTRATIVE_REGION", "deal_id": 3449, "country": "Liberia", "region": "Africa"}}, {"type": "Feature", "geometry": {"type": "Point", "coordinates": [29.0809, -9.7937]}, "properties": {"id": 1, "name": "Kawambwa, Zambia", "type": "point", "spatial_accuracy": "ADMINISTRATIVE_REGION", "deal_id": 4457, "country": "Zambia", "region": "Africa"}}, {"type": "Feature", "geometry": {"type": "Point", "coordinates": [35.61562, -2.06292]}, "properties": {"id": 1, "name": "Ngorongoro District, Loliondo", "type": "point", "spatial_accuracy": "COORDINATES", "deal_id": 1861, "country": "Tanzania", "region": "Africa"}}, {"type": "Feature", "geometry": {"type": "Point", "coordinates": [-1.91433, 5.10877]}, "properties": {"id": 1, "name": "Wassa East, Ghana", "type": "point", "spatial_accuracy": "COORDINATES", "deal_id": 1346, "country": "Ghana", "region": "Africa"}}, {"type": "Feature", "geometry": {"type": "Point", "coordinates": [31.74, -0.34]}, "properties": {"id": 1, "name": "Masaka, Uganda", "type": "point", "spatial_accuracy": "ADMINISTRATIVE_REGION", "deal_id": 4458, "country": "Uganda", "region": "Africa"}}, {"type": "Feature", "geometry": {"type": "Point", "coordinates": [0.37597, 6.02936]}, "properties": {"id": 1, "name": "Aveyime, Ghana", "type": "point", "spatial_accuracy": "APPROXIMATE_LOCATION", "deal_id": 1348, "country": "Ghana", "region": "Africa"}}, {"type": "Feature", "geometry": {"type": "Point", "coordinates": [32.98273, 13.09394]}, "properties": {"id": 1, "name": "Rabak, Sudan", "type": "point", "spatial_accuracy": "EXACT_LOCATION", "deal_id": 2352, "country": "Sudan", "region": "Africa"}}, {"type": "Feature", "geometry": {"type": "Point", "coordinates": [-2.33333, 7.33333]}, "properties": {"id": 1, "name": "Sunyani, Ghana", "type": "point", "spatial_accuracy": "ADMINISTRATIVE_REGION", "deal_id": 1350, "country": "Ghana", "region": "Africa"}}, {"type": "Feature", "geometry": {"type": "Point", "coordinates": [-1.40443, 7.06068]}, "properties": {"id": 2, "name": "Mampong, Ghana", "type": "point", "spatial_accuracy": "ADMINISTRATIVE_REGION", "deal_id": 1350, "country": "Ghana", "region": "Africa"}}, {"type": "Feature", "geometry": {"type": "Point", "coordinates": [-0.01399, 6.105]}, "properties": {"id": 3, "name": "Somanya, Ghana", "type": "point", "spatial_accuracy": "ADMINISTRATIVE_REGION", "deal_id": 1350, "country": "Ghana", "region": "Africa"}}, {"type": "Feature", "geometry": {"type": "Point", "coordinates": [32.03829, 0.47777]}, "properties": {"id": 1, "name": "Mityana, Uganda", "type": "point", "spatial_accuracy": "ADMINISTRATIVE_REGION", "deal_id": 4174, "country": "Uganda", "region": "Africa"}}, {"type": "Feature", "geometry": {"type": "Point", "coordinates": [-8.2213, 5.92221]}, "properties": {"id": 1, "name": "Grand Gedeh, Liberia", "type": "point", "spatial_accuracy": "ADMINISTRATIVE_REGION", "deal_id": 3450, "country": "Liberia", "region": "Africa"}}, {"type": "Feature", "geometry": {"type": "Point", "coordinates": [-9.45615, 5.90253]}, "properties": {"id": 2, "name": "River Cess, Liberia", "type": "point", "spatial_accuracy": "ADMINISTRATIVE_REGION", "deal_id": 3450, "country": "Liberia", "region": "Africa"}}, {"type": "Feature", "geometry": {"type": "Point", "coordinates": [-8.66006, 6.84276]}, "properties": {"id": 3, "name": "Nimba, Liberia", "type": "point", "spatial_accuracy": "ADMINISTRATIVE_REGION", "deal_id": 3450, "country": "Liberia", "region": "Africa"}}, {"type": "Feature", "geometry": {"type": "Point", "coordinates": [8.3417, 4.97572]}, "properties": {"id": 1, "name": "Calabar, Nigeria", "type": "point", "spatial_accuracy": "ADMINISTRATIVE_REGION", "deal_id": 5042, "country": "Nigeria", "region": "Africa"}}, {"type": "Feature", "geometry": {"type": "Point", "coordinates": [32.52064, 0.2214]}, "properties": {"id": 1, "name": "Wakiso, Uganda", "type": "point", "spatial_accuracy": "EXACT_LOCATION", "deal_id": 4175, "country": "Uganda", "region": "Africa"}}, {"type": "Feature", "geometry": {"type": "Point", "coordinates": [34.24459, -16.4154]}, "properties": {"id": 1, "name": "Minjova, Mozambique", "type": "point", "spatial_accuracy": "ADMINISTRATIVE_REGION", "deal_id": 4762, "country": "Mozambique", "region": "Africa"}}, {"type": "Feature", "geometry": {"type": "Point", "coordinates": [-13.85057, 9.91938]}, "properties": {"id": 1, "name": "Koba, Guinea", "type": "point", "spatial_accuracy": "EXACT_LOCATION", "deal_id": 1356, "country": "Guinea", "region": "Africa"}}, {"type": "Feature", "geometry": {"type": "Point", "coordinates": [29.0809, -9.7937]}, "properties": {"id": 1, "name": "Kawambwa, Zambia", "type": "point", "spatial_accuracy": "ADMINISTRATIVE_REGION", "deal_id": 4459, "country": "Zambia", "region": "Africa"}}, {"type": "Feature", "geometry": {"type": "Point", "coordinates": [-10.50337, 8.71172]}, "properties": {"id": 1, "name": "Ndema, Guinea", "type": "point", "spatial_accuracy": "ADMINISTRATIVE_REGION", "deal_id": 1358, "country": "Guinea", "region": "Africa"}}, {"type": "Feature", "geometry": {"type": "Point", "coordinates": [-10.85, 10.7]}, "properties": {"id": 2, "name": "Konindou, Guinea", "type": "point", "spatial_accuracy": "ADMINISTRATIVE_REGION", "deal_id": 1358, "country": "Guinea", "region": "Africa"}}, {"type": "Feature", "geometry": {"type": "Point", "coordinates": [-10.39331, 10.77281]}, "properties": {"id": 1, "name": "Saraya, Guinea", "type": "point", "spatial_accuracy": "ADMINISTRATIVE_REGION", "deal_id": 1359, "country": "Guinea", "region": "Africa"}}, {"type": "Feature", "geometry": {"type": "Point", "coordinates": [38.02824, -5.4346]}, "properties": {"id": 1, "name": "Handeni, Tanzania", "type": "point", "spatial_accuracy": "ADMINISTRATIVE_REGION", "deal_id": 1867, "country": "Tanzania", "region": "Africa"}}, {"type": "Feature", "geometry": {"type": "Point", "coordinates": [36.68299, -3.38693]}, "properties": {"id": 2, "name": "Arusha, Tanzania", "type": "point", "spatial_accuracy": "ADMINISTRATIVE_REGION", "deal_id": 1867, "country": "Tanzania", "region": "Africa"}}, {"type": "Feature", "geometry": {"type": "Point", "coordinates": [32.80384, 13.01195]}, "properties": {"id": 1, "name": "White Nile, Sudan", "type": "point", "spatial_accuracy": "ADMINISTRATIVE_REGION", "deal_id": 2353, "country": "Sudan", "region": "Africa"}}, {"type": "Feature", "geometry": {"type": "Point", "coordinates": [-13.67847, 9.53703]}, "properties": {"id": 1, "name": "Conakry, Guinea", "type": "point", "spatial_accuracy": "ADMINISTRATIVE_REGION", "deal_id": 1361, "country": "Guinea", "region": "Africa"}}, {"type": "Feature", "geometry": {"type": "Point", "coordinates": [34.33104, -20.14639]}, "properties": {"id": 1, "name": "Buzi, Mozambique", "type": "point", "spatial_accuracy": "ADMINISTRATIVE_REGION", "deal_id": 1607, "country": "Mozambique", "region": "Africa"}}, {"type": "Feature", "geometry": {"type": "Point", "coordinates": [29.63333, -4.88333]}, "properties": {"id": 1, "name": "Kigoma, Tanzania", "type": "point", "spatial_accuracy": "ADMINISTRATIVE_REGION", "deal_id": 1872, "country": "Tanzania", "region": "Africa"}}, {"type": "Feature", "geometry": {"type": "Point", "coordinates": [35.61667, -2.05]}, "properties": {"id": 1, "name": "Loliondo, Tanzania", "type": "point", "spatial_accuracy": "ADMINISTRATIVE_REGION", "deal_id": 1873, "country": "Tanzania", "region": "Africa"}}, {"type": "Feature", "geometry": {"type": "Point", "coordinates": [40.11071, -2.26948]}, "properties": {"id": 1, "name": "Garsen, Kenya", "type": "point", "spatial_accuracy": "ADMINISTRATIVE_REGION", "deal_id": 1363, "country": "Kenya", "region": "Africa"}}, {"type": "Feature", "geometry": {"type": "Point", "coordinates": [-7.87216, 5.75987]}, "properties": {"id": 1, "name": "Konobo, Liberia", "type": "point", "spatial_accuracy": "ADMINISTRATIVE_REGION", "deal_id": 3451, "country": "Liberia", "region": "Africa"}}, {"type": "Feature", "geometry": {"type": "Point", "coordinates": [-7.98108, 5.27982]}, "properties": {"id": 2, "name": "Gbeapo, Liberia", "type": "point", "spatial_accuracy": "ADMINISTRATIVE_REGION", "deal_id": 3451, "country": "Liberia", "region": "Africa"}}, {"type": "Feature", "geometry": {"type": "Point", "coordinates": [15.37093, -12.56333]}, "properties": {"id": 1, "name": "Caala, Angola", "type": "point", "spatial_accuracy": "COORDINATES", "deal_id": 1089, "country": "Angola", "region": "Africa"}}, {"type": "Feature", "geometry": {"type": "Point", "coordinates": [14.65878, -9.23985]}, "properties": {"id": 1, "name": "Cuanza Norte Province, Angola", "type": "point", "spatial_accuracy": "ADMINISTRATIVE_REGION", "deal_id": 1094, "country": "Angola", "region": "Africa"}}, {"type": "Feature", "geometry": {"type": "Point", "coordinates": [10.63365, 6.08901]}, "properties": {"id": 1, "name": "Jakiri, Cameroon", "type": "point", "spatial_accuracy": "ADMINISTRATIVE_REGION", "deal_id": 3914, "country": "Cameroon", "region": "Africa"}}, {"type": "Feature", "geometry": {"type": "Point", "coordinates": [25.30548, -12.27326]}, "properties": {"id": 1, "name": "Mutanda, Zambia", "type": "point", "spatial_accuracy": "ADMINISTRATIVE_REGION", "deal_id": 4763, "country": "Zambia", "region": "Africa"}}, {"type": "Feature", "geometry": {"type": "Point", "coordinates": [40.63469, 7.54604]}, "properties": {"id": 1, "name": "Oromia, Ethiopia", "type": "point", "spatial_accuracy": "ADMINISTRATIVE_REGION", "deal_id": 4764, "country": "Ethiopia", "region": "Africa"}}, {"type": "Feature", "geometry": {"type": "Point", "coordinates": [-8.2213, 5.92221]}, "properties": {"id": 1, "name": "Grand Gedeh, Liberia", "type": "point", "spatial_accuracy": "ADMINISTRATIVE_REGION", "deal_id": 3452, "country": "Liberia", "region": "Africa"}}, {"type": "Feature", "geometry": {"type": "Point", "coordinates": [-8.66006, 5.49871]}, "properties": {"id": 2, "name": "Sinoe, Liberia", "type": "point", "spatial_accuracy": "ADMINISTRATIVE_REGION", "deal_id": 3452, "country": "Liberia", "region": "Africa"}}, {"type": "Feature", "geometry": {"type": "Point", "coordinates": [37.13333, -6.68333]}, "properties": {"id": 1, "name": "Rudewa, Tanzania", "type": "point", "spatial_accuracy": "ADMINISTRATIVE_REGION", "deal_id": 2363, "country": "Tanzania", "region": "Africa"}}, {"type": "Feature", "geometry": {"type": "Point", "coordinates": [35.74194, -6.17306]}, "properties": {"id": 1, "name": "Dodoma, Tanzania", "type": "point", "spatial_accuracy": "ADMINISTRATIVE_REGION", "deal_id": 1880, "country": "Tanzania", "region": "Africa"}}, {"type": "Feature", "geometry": {"type": "Point", "coordinates": [38.02611, -5.42363]}, "properties": {"id": 2, "name": "Handeni, Tanzania", "type": "point", "spatial_accuracy": "ADMINISTRATIVE_REGION", "deal_id": 1880, "country": "Tanzania", "region": "Africa"}}, {"type": "Feature", "geometry": {"type": "Point", "coordinates": [36.4175, -6.19701]}, "properties": {"id": 3, "name": "Kongwa, Tanzania", "type": "point", "spatial_accuracy": "ADMINISTRATIVE_REGION", "deal_id": 1880, "country": "Tanzania", "region": "Africa"}}, {"type": "Feature", "geometry": {"type": "Point", "coordinates": [38.92766, -10.06628]}, "properties": {"id": 1, "name": "Ruangwa, Tanzania", "type": "point", "spatial_accuracy": "ADMINISTRATIVE_REGION", "deal_id": 4765, "country": "Tanzania", "region": "Africa"}}, {"type": "Feature", "geometry": {"type": "Point", "coordinates": [37.29603, -3.36582]}, "properties": {"id": 1, "name": "Moshi, Tanzania", "type": "point", "spatial_accuracy": "ADMINISTRATIVE_REGION", "deal_id": 1883, "country": "Tanzania", "region": "Africa"}}, {"type": "Feature", "geometry": {"type": "Point", "coordinates": [30.74364, -25.4281]}, "properties": {"id": 1, "name": "R539, 1202, South Africa", "type": "point", "spatial_accuracy": "APPROXIMATE_LOCATION", "deal_id": 2369, "country": "South Africa", "region": "Africa"}}, {"type": "Feature", "geometry": {"type": "Point", "coordinates": [15.75, -9.41667]}, "properties": {"id": 1, "name": "Cacuso, Angola", "type": "point", "spatial_accuracy": "ADMINISTRATIVE_REGION", "deal_id": 1098, "country": "Angola", "region": "Africa"}}, {"type": "Feature", "geometry": {"type": "Point", "coordinates": [33.67826, -16.1729]}, "properties": {"id": 1, "name": "Benga, Mozambique", "type": "point", "spatial_accuracy": "EXACT_LOCATION", "deal_id": 1622, "country": "Mozambique", "region": "Africa"}}, {"type": "Feature", "geometry": {"type": "Point", "coordinates": [40.11071, -2.26948]}, "properties": {"id": 1, "name": "Garsen, Kenya", "type": "point", "spatial_accuracy": "ADMINISTRATIVE_REGION", "deal_id": 1371, "country": "Kenya", "region": "Africa"}}, {"type": "Feature", "geometry": {"type": "Point", "coordinates": [40.90064, -2.26956]}, "properties": {"id": 2, "name": "Lamu, Kenya", "type": "point", "spatial_accuracy": "ADMINISTRATIVE_REGION", "deal_id": 1371, "country": "Kenya", "region": "Africa"}}, {"type": "Feature", "geometry": {"type": "Point", "coordinates": [15.40681, -7.17367]}, "properties": {"id": 1, "name": "Uige, Angola", "type": "point", "spatial_accuracy": "ADMINISTRATIVE_REGION", "deal_id": 1099, "country": "Angola", "region": "Africa"}}, {"type": "Feature", "geometry": {"type": "Point", "coordinates": [13.72892, -9.10423]}, "properties": {"id": 1, "name": "Bengo, Angola", "type": "point", "spatial_accuracy": "ADMINISTRATIVE_REGION", "deal_id": 1101, "country": "Angola", "region": "Africa"}}, {"type": "Feature", "geometry": {"type": "Point", "coordinates": [34.08335, -8.68367]}, "properties": {"id": 1, "name": "Kapunga, Tanzania", "type": "point", "spatial_accuracy": "EXACT_LOCATION", "deal_id": 1889, "country": "Tanzania", "region": "Africa"}}, {"type": "Feature", "geometry": {"type": "Point", "coordinates": [34.16048, 0.02021]}, "properties": {"id": 1, "name": "Yala Swamp, Kenya", "type": "point", "spatial_accuracy": "COORDINATES", "deal_id": 1374, "country": "Kenya", "region": "Africa"}}, {"type": "Feature", "geometry": {"type": "Point", "coordinates": [-0.70578, 5.52982]}, "properties": {"id": 1, "name": "Agona Swedru, Ghana", "type": "point", "spatial_accuracy": "APPROXIMATE_LOCATION", "deal_id": 3915, "country": "Ghana", "region": "Africa"}}, {"type": "Feature", "geometry": {"type": "Point", "coordinates": [34.76796, -0.0917]}, "properties": {"id": 1, "name": "Kisumu, Kenya", "type": "point", "spatial_accuracy": "ADMINISTRATIVE_REGION", "deal_id": 1376, "country": "Kenya", "region": "Africa"}}, {"type": "Feature", "geometry": {"type": "Point", "coordinates": [16.15809, -16.28022]}, "properties": {"id": 1, "name": "Cunene, Angola", "type": "point", "spatial_accuracy": "ADMINISTRATIVE_REGION", "deal_id": 1103, "country": "Angola", "region": "Africa"}}, {"type": "Feature", "geometry": {"type": "Point", "coordinates": [17.6687, -22.96238]}, "properties": {"id": 1, "name": "Dordabis, Namibia", "type": "point", "spatial_accuracy": "ADMINISTRATIVE_REGION", "deal_id": 5054, "country": "Namibia", "region": "Africa"}}, {"type": "Feature", "geometry": {"type": "Point", "coordinates": [36.34133, -8.29065]}, "properties": {"id": 1, "name": "Mofu, Tanzania", "type": "point", "spatial_accuracy": "ADMINISTRATIVE_REGION", "deal_id": 1894, "country": "Tanzania", "region": "Africa"}}, {"type": "Feature", "geometry": {"type": "Point", "coordinates": [2.18433, 7.04477]}, "properties": {"id": 1, "name": "Zogbodomey, Benin", "type": "point", "spatial_accuracy": "ADMINISTRATIVE_REGION", "deal_id": 1107, "country": "Benin", "region": "Africa"}}, {"type": "Feature", "geometry": {"type": "Point", "coordinates": [2.34189, 6.70104]}, "properties": {"id": 2, "name": "Z\u00e8, Benin", "type": "point", "spatial_accuracy": "ADMINISTRATIVE_REGION", "deal_id": 1107, "country": "Benin", "region": "Africa"}}, {"type": "Feature", "geometry": {"type": "Point", "coordinates": [10.07275, 3.48962]}, "properties": {"id": 1, "name": "D\u00e9han\u00e9, Cameroon", "type": "point", "spatial_accuracy": "EXACT_LOCATION", "deal_id": 4464, "country": "Cameroon", "region": "Africa"}}, {"type": "Feature", "geometry": {"type": "Point", "coordinates": [-1.69487, 7.21011]}, "properties": {"id": 1, "name": "Afram Headwaters Forest Reserve, Ghana", "type": "point", "spatial_accuracy": "COORDINATES", "deal_id": 8082, "country": "Ghana", "region": "Africa"}}, {"type": "Feature", "geometry": {"type": "Point", "coordinates": [35.24781, -13.30236]}, "properties": {"id": 1, "name": "Lichinga, Mozambique", "type": "point", "spatial_accuracy": "ADMINISTRATIVE_REGION", "deal_id": 1628, "country": "Mozambique", "region": "Africa"}}, {"type": "Feature", "geometry": {"type": "Point", "coordinates": [-6.64243, 4.75787]}, "properties": {"id": 1, "name": "San-Pedro, C\u00f4te d'Ivoire", "type": "point", "spatial_accuracy": "ADMINISTRATIVE_REGION", "deal_id": 3917, "country": "C\u00f4te d'Ivoire", "region": "Africa"}}, {"type": "Feature", "geometry": {"type": "Point", "coordinates": [-4.36679, 5.32621]}, "properties": {"id": 2, "name": "Dabou, C\u00f4te d'Ivoire", "type": "point", "spatial_accuracy": "ADMINISTRATIVE_REGION", "deal_id": 3917, "country": "C\u00f4te d'Ivoire", "region": "Africa"}}, {"type": "Feature", "geometry": {"type": "Point", "coordinates": [-11.50197, 7.31932]}, "properties": {"id": 1, "name": "Saba, Sierra Leone", "type": "point", "spatial_accuracy": "EXACT_LOCATION", "deal_id": 2371, "country": "Sierra Leone", "region": "Africa"}}, {"type": "Feature", "geometry": {"type": "Point", "coordinates": [28.23719, -12.52798]}, "properties": {"id": 1, "name": "Mopani, Zambia", "type": "point", "spatial_accuracy": "EXACT_LOCATION", "deal_id": 4766, "country": "Zambia", "region": "Africa"}}, {"type": "Feature", "geometry": {"type": "Point", "coordinates": [2.37945, 8.06265]}, "properties": {"id": 1, "name": "Sav\u00e8", "type": "point", "spatial_accuracy": "COORDINATES", "deal_id": 1113, "country": "Benin", "region": "Africa"}}, {"type": "Feature", "geometry": {"type": "Point", "coordinates": [-9.69664, 9.94559]}, "properties": {"id": 1, "name": "Guinea", "type": "point", "spatial_accuracy": "COUNTRY", "deal_id": 3918, "country": "Guinea", "region": "Africa"}}, {"type": "Feature", "geometry": {"type": "Point", "coordinates": [2.06159, 7.19144]}, "properties": {"id": 1, "name": "ZAKPO, Bohicon, Benin", "type": "point", "spatial_accuracy": "ADMINISTRATIVE_REGION", "deal_id": 1117, "country": "Benin", "region": "Africa"}}, {"type": "Feature", "geometry": {"type": "Point", "coordinates": [37.0144, -1.10182]}, "properties": {"id": 1, "name": "Juja, Kenya", "type": "point", "spatial_accuracy": "APPROXIMATE_LOCATION", "deal_id": 1384, "country": "Kenya", "region": "Africa"}}, {"type": "Feature", "geometry": {"type": "Point", "coordinates": [36.43103, -0.71718]}, "properties": {"id": 2, "name": "Naivasha, Kenya", "type": "point", "spatial_accuracy": "APPROXIMATE_LOCATION", "deal_id": 1384, "country": "Kenya", "region": "Africa"}}, {"type": "Feature", "geometry": {"type": "Point", "coordinates": [35.73237, -0.24884]}, "properties": {"id": 3, "name": "Molo, Kenya", "type": "point", "spatial_accuracy": "APPROXIMATE_LOCATION", "deal_id": 1384, "country": "Kenya", "region": "Africa"}}, {"type": "Feature", "geometry": {"type": "Point", "coordinates": [37.30841, -0.15214]}, "properties": {"id": 4, "name": "Mount Kenya, Kenya", "type": "point", "spatial_accuracy": "APPROXIMATE_LOCATION", "deal_id": 1384, "country": "Kenya", "region": "Africa"}}, {"type": "Feature", "geometry": {"type": "Point", "coordinates": [37.36135, 11.57421]}, "properties": {"id": 1, "name": "Bahir Dar, Ethiopia", "type": "point", "spatial_accuracy": "ADMINISTRATIVE_REGION", "deal_id": 8461, "country": "Ethiopia", "region": "Africa"}}, {"type": "Feature", "geometry": {"type": "Point", "coordinates": [2.18433, 7.04477]}, "properties": {"id": 1, "name": "Zogbodomey, Benin", "type": "point", "spatial_accuracy": "ADMINISTRATIVE_REGION", "deal_id": 1118, "country": "Benin", "region": "Africa"}}, {"type": "Feature", "geometry": {"type": "Point", "coordinates": [-2.09818, 11.09447]}, "properties": {"id": 1, "name": "Leo, Burkina Faso", "type": "point", "spatial_accuracy": "ADMINISTRATIVE_REGION", "deal_id": 1123, "country": "Burkina Faso", "region": "Africa"}}, {"type": "Feature", "geometry": {"type": "Point", "coordinates": [-11.00073, 6.7222]}, "properties": {"id": 1, "name": "Bomi, Liberia", "type": "point", "spatial_accuracy": "EXACT_LOCATION", "deal_id": 1388, "country": "Liberia", "region": "Africa"}}, {"type": "Feature", "geometry": {"type": "Point", "coordinates": [-4.23334, 7.24567]}, "properties": {"id": 1, "name": "Nzi-Comoe, C\u00f4te d'Ivoire", "type": "point", "spatial_accuracy": "ADMINISTRATIVE_REGION", "deal_id": 1126, "country": "C\u00f4te d'Ivoire", "region": "Africa"}}, {"type": "Feature", "geometry": {"type": "Point", "coordinates": [-6.63861, 4.75139]}, "properties": {"id": 2, "name": "San-Pedro, C\u00f4te d'Ivoire", "type": "point", "spatial_accuracy": "ADMINISTRATIVE_REGION", "deal_id": 1126, "country": "C\u00f4te d'Ivoire", "region": "Africa"}}, {"type": "Feature", "geometry": {"type": "Point", "coordinates": [10.38949, 2.26162]}, "properties": {"id": 1, "name": "Maan, Cameroon", "type": "point", "spatial_accuracy": "COORDINATES", "deal_id": 7414, "country": "Cameroon", "region": "Africa"}}, {"type": "Feature", "geometry": {"type": "Point", "coordinates": [-1.65907, 5.13846]}, "properties": {"id": 1, "name": "Daboase, Ghana", "type": "point", "spatial_accuracy": "ADMINISTRATIVE_REGION", "deal_id": 5055, "country": "Ghana", "region": "Africa"}}, {"type": "Feature", "geometry": {"type": "Point", "coordinates": [-1.83793, 5.0872]}, "properties": {"id": 2, "name": "Manso, Ghana", "type": "point", "spatial_accuracy": "ADMINISTRATIVE_REGION", "deal_id": 5055, "country": "Ghana", "region": "Africa"}}, {"type": "Feature", "geometry": {"type": "Point", "coordinates": [-5.01937, 6.55231]}, "properties": {"id": 1, "name": "Toumodi, C\u00f4te d'Ivoire", "type": "point", "spatial_accuracy": "ADMINISTRATIVE_REGION", "deal_id": 1129, "country": "C\u00f4te d'Ivoire", "region": "Africa"}}, {"type": "Feature", "geometry": {"type": "Point", "coordinates": [-15.805, 16.51278]}, "properties": {"id": 1, "name": "Rosso, Mauritania", "type": "point", "spatial_accuracy": "ADMINISTRATIVE_REGION", "deal_id": 1637, "country": "Mauritania", "region": "Africa"}}, {"type": "Feature", "geometry": {"type": "Point", "coordinates": [-3.03759, 5.28195]}, "properties": {"id": 1, "name": "EHANIA, C\u00f4te d'Ivoire", "type": "point", "spatial_accuracy": "EXACT_LOCATION", "deal_id": 1130, "country": "C\u00f4te d'Ivoire", "region": "Africa"}}, {"type": "Feature", "geometry": {"type": "Point", "coordinates": [-3.3426, 5.34965]}, "properties": {"id": 2, "name": "Toumangui\u00e9, C\u00f4te d'Ivoire", "type": "point", "spatial_accuracy": "EXACT_LOCATION", "deal_id": 1130, "country": "C\u00f4te d'Ivoire", "region": "Africa"}}, {"type": "Feature", "geometry": {"type": "Point", "coordinates": [-4.79284, 5.35326]}, "properties": {"id": 3, "name": "Lagune Irobo, C\u00f4te d'Ivoire", "type": "point", "spatial_accuracy": "EXACT_LOCATION", "deal_id": 1130, "country": "C\u00f4te d'Ivoire", "region": "Africa"}}, {"type": "Feature", "geometry": {"type": "Point", "coordinates": [-7.25, 5.1]}, "properties": {"id": 4, "name": "N\u00e9ka, C\u00f4te d'Ivoire", "type": "point", "spatial_accuracy": "ADMINISTRATIVE_REGION", "deal_id": 1130, "country": "C\u00f4te d'Ivoire", "region": "Africa"}}, {"type": "Feature", "geometry": {"type": "Point", "coordinates": [-4.3361, 5.31752]}, "properties": {"id": 5, "name": "Boubo, C\u00f4te d'Ivoire", "type": "point", "spatial_accuracy": "EXACT_LOCATION", "deal_id": 1130, "country": "C\u00f4te d'Ivoire", "region": "Africa"}}, {"type": "Feature", "geometry": {"type": "Point", "coordinates": [-7.4138, 4.68071]}, "properties": {"id": 6, "name": "IBOKE, C\u00f4te d'Ivoire", "type": "point", "spatial_accuracy": "EXACT_LOCATION", "deal_id": 1130, "country": "C\u00f4te d'Ivoire", "region": "Africa"}}, {"type": "Feature", "geometry": {"type": "Point", "coordinates": [-7.51931, 4.95984]}, "properties": {"id": 7, "name": "GBAPET, C\u00f4te d'Ivoire", "type": "point", "spatial_accuracy": "ADMINISTRATIVE_REGION", "deal_id": 1130, "country": "C\u00f4te d'Ivoire", "region": "Africa"}}, {"type": "Feature", "geometry": {"type": "Point", "coordinates": [-7.41667, 7.58333]}, "properties": {"id": 8, "name": "Blidouba, C\u00f4te d'Ivoire", "type": "point", "spatial_accuracy": "ADMINISTRATIVE_REGION", "deal_id": 1130, "country": "C\u00f4te d'Ivoire", "region": "Africa"}}, {"type": "Feature", "geometry": {"type": "Point", "coordinates": [-7.74167, 4.72589]}, "properties": {"id": 1, "name": "Maryland, Liberia", "type": "point", "spatial_accuracy": "ADMINISTRATIVE_REGION", "deal_id": 1391, "country": "Liberia", "region": "Africa"}}, {"type": "Feature", "geometry": {"type": "Point", "coordinates": [-4.7054, 6.64446]}, "properties": {"id": 1, "name": "Dimbokro, C\u00f4te d'Ivoire", "type": "point", "spatial_accuracy": "ADMINISTRATIVE_REGION", "deal_id": 1131, "country": "C\u00f4te d'Ivoire", "region": "Africa"}}, {"type": "Feature", "geometry": {"type": "Point", "coordinates": [-5.13333, 6.23333]}, "properties": {"id": 2, "name": "Taabo, C\u00f4te d'Ivoire", "type": "point", "spatial_accuracy": "ADMINISTRATIVE_REGION", "deal_id": 1131, "country": "C\u00f4te d'Ivoire", "region": "Africa"}}, {"type": "Feature", "geometry": {"type": "Point", "coordinates": [35.40849, -12.41405]}, "properties": {"id": 1, "name": "Sanga, Mozambique", "type": "point", "spatial_accuracy": "ADMINISTRATIVE_REGION", "deal_id": 2375, "country": "Mozambique", "region": "Africa"}}, {"type": "Feature", "geometry": {"type": "Point", "coordinates": [35.24781, -13.30236]}, "properties": {"id": 2, "name": "Lichinga, Mozambique", "type": "point", "spatial_accuracy": "ADMINISTRATIVE_REGION", "deal_id": 2375, "country": "Mozambique", "region": "Africa"}}, {"type": "Feature", "geometry": {"type": "Point", "coordinates": [35.74069, -12.7641]}, "properties": {"id": 3, "name": "Muembe, Mozambique", "type": "point", "spatial_accuracy": "ADMINISTRATIVE_REGION", "deal_id": 2375, "country": "Mozambique", "region": "Africa"}}, {"type": "Feature", "geometry": {"type": "Point", "coordinates": [-5.54708, 7.53999]}, "properties": {"id": 1, "name": "Nielle, C\u00f4te d'Ivoire", "type": "point", "spatial_accuracy": "ADMINISTRATIVE_REGION", "deal_id": 1132, "country": "C\u00f4te d'Ivoire", "region": "Africa"}}, {"type": "Feature", "geometry": {"type": "Point", "coordinates": [-4.91667, 7.18333]}, "properties": {"id": 1, "name": "Kouassi-Prikro I, C\u00f4te d'Ivoire", "type": "point", "spatial_accuracy": "ADMINISTRATIVE_REGION", "deal_id": 4467, "country": "C\u00f4te d'Ivoire", "region": "Africa"}}, {"type": "Feature", "geometry": {"type": "Point", "coordinates": [-4.00826, 5.35995]}, "properties": {"id": 1, "name": "Abidjan, C\u00f4te d'Ivoire", "type": "point", "spatial_accuracy": "ADMINISTRATIVE_REGION", "deal_id": 5056, "country": "C\u00f4te d'Ivoire", "region": "Africa"}}, {"type": "Feature", "geometry": {"type": "Point", "coordinates": [12.37078, 4.66273]}, "properties": {"id": 1, "name": "Nanga-Eboko, Cameroon", "type": "point", "spatial_accuracy": "ADMINISTRATIVE_REGION", "deal_id": 1140, "country": "Cameroon", "region": "Africa"}}, {"type": "Feature", "geometry": {"type": "Point", "coordinates": [11.816, 4.40156]}, "properties": {"id": 2, "name": "Ndjor\u00e9, Cameroon", "type": "point", "spatial_accuracy": "ADMINISTRATIVE_REGION", "deal_id": 1140, "country": "Cameroon", "region": "Africa"}}, {"type": "Feature", "geometry": {"type": "Point", "coordinates": [9.98333, 5.28333]}, "properties": {"id": 3, "name": "Santchou, Cameroon", "type": "point", "spatial_accuracy": "ADMINISTRATIVE_REGION", "deal_id": 1140, "country": "Cameroon", "region": "Africa"}}, {"type": "Feature", "geometry": {"type": "Point", "coordinates": [-10.08073, 7.49526]}, "properties": {"id": 1, "name": "Gbarpolu, Liberia", "type": "point", "spatial_accuracy": "ADMINISTRATIVE_REGION", "deal_id": 1392, "country": "Liberia", "region": "Africa"}}, {"type": "Feature", "geometry": {"type": "Point", "coordinates": [-9.72327, 8.19112]}, "properties": {"id": 2, "name": "Lofa, Liberia", "type": "point", "spatial_accuracy": "ADMINISTRATIVE_REGION", "deal_id": 1392, "country": "Liberia", "region": "Africa"}}, {"type": "Feature", "geometry": {"type": "Point", "coordinates": [36.94222, -7.76556]}, "properties": {"id": 1, "name": "sange tanzania", "type": "point", "spatial_accuracy": "EXACT_LOCATION", "deal_id": 1907, "country": "Tanzania", "region": "Africa"}}, {"type": "Feature", "geometry": {"type": "Point", "coordinates": [35.24781, -13.30236]}, "properties": {"id": 1, "name": "Lichinga, Mozambique", "type": "point", "spatial_accuracy": "ADMINISTRATIVE_REGION", "deal_id": 2376, "country": "Mozambique", "region": "Africa"}}, {"type": "Feature", "geometry": {"type": "Point", "coordinates": [34.95066, -12.33562]}, "properties": {"id": 2, "name": "Lago, Mozambique", "type": "point", "spatial_accuracy": "ADMINISTRATIVE_REGION", "deal_id": 2376, "country": "Mozambique", "region": "Africa"}}, {"type": "Feature", "geometry": {"type": "Point", "coordinates": [32.68107, 0.35738]}, "properties": {"id": 1, "name": "National Forest Authority Namanve, Kampala, Uganda", "type": "point", "spatial_accuracy": "ADMINISTRATIVE_REGION", "deal_id": 4182, "country": "Uganda", "region": "Africa"}}, {"type": "Feature", "geometry": {"type": "Point", "coordinates": [-11.13933, 7.01315]}, "properties": {"id": 1, "name": "Grand Cape Mount, Liberia", "type": "point", "spatial_accuracy": "EXACT_LOCATION", "deal_id": 4767, "country": "Liberia", "region": "Africa"}}, {"type": "Feature", "geometry": {"type": "Point", "coordinates": [10.36102, 5.98012]}, "properties": {"id": 1, "name": "Ndop, Cameroon", "type": "point", "spatial_accuracy": "ADMINISTRATIVE_REGION", "deal_id": 1148, "country": "Cameroon", "region": "Africa"}}, {"type": "Feature", "geometry": {"type": "Point", "coordinates": [38.69375, -6.23562]}, "properties": {"id": 1, "name": "Mvomero, Tanzania", "type": "point", "spatial_accuracy": "ADMINISTRATIVE_REGION", "deal_id": 1908, "country": "Tanzania", "region": "Africa"}}, {"type": "Feature", "geometry": {"type": "Point", "coordinates": [36.60939, -16.5639]}, "properties": {"id": 1, "name": "Zambezia Province, Mozambique", "type": "point", "spatial_accuracy": "ADMINISTRATIVE_REGION", "deal_id": 2377, "country": "Mozambique", "region": "Africa"}}, {"type": "Feature", "geometry": {"type": "Point", "coordinates": [-9.81249, 6.23085]}, "properties": {"id": 1, "name": "Grand Bassa, Liberia", "type": "point", "spatial_accuracy": "ADMINISTRATIVE_REGION", "deal_id": 1393, "country": "Liberia", "region": "Africa"}}, {"type": "Feature", "geometry": {"type": "Point", "coordinates": [31.27515, -1.22758]}, "properties": {"id": 1, "name": "Bukoba, Tanzania", "type": "point", "spatial_accuracy": "COORDINATES", "deal_id": 1909, "country": "Tanzania", "region": "Africa"}}, {"type": "Feature", "geometry": {"type": "Point", "coordinates": [9.97725, 3.77967]}, "properties": {"id": 1, "name": "Dizangu\u00e9, Cameroon", "type": "point", "spatial_accuracy": "EXACT_LOCATION", "deal_id": 1149, "country": "Cameroon", "region": "Africa"}}, {"type": "Feature", "geometry": {"type": "Point", "coordinates": [36.60939, -16.5639]}, "properties": {"id": 1, "name": "Zambezia Province, Mozambique", "type": "point", "spatial_accuracy": "ADMINISTRATIVE_REGION", "deal_id": 2379, "country": "Mozambique", "region": "Africa"}}, {"type": "Feature", "geometry": {"type": "Point", "coordinates": [34.30152, -13.25431]}, "properties": {"id": 1, "name": "Malawi", "type": "point", "spatial_accuracy": "COUNTRY", "deal_id": 1645, "country": "Malawi", "region": "Africa"}}, {"type": "Feature", "geometry": {"type": "Point", "coordinates": [10.60672, 3.69255]}, "properties": {"id": 1, "name": "Bidjoka, Cameroon", "type": "point", "spatial_accuracy": "EXACT_LOCATION", "deal_id": 1151, "country": "Cameroon", "region": "Africa"}}, {"type": "Feature", "geometry": {"type": "Point", "coordinates": [10.68595, 3.62403]}, "properties": {"id": 2, "name": "Eseka, Cameroon", "type": "point", "spatial_accuracy": "EXACT_LOCATION", "deal_id": 1151, "country": "Cameroon", "region": "Africa"}}, {"type": "Feature", "geometry": {"type": "Point", "coordinates": [9.98029, 2.934]}, "properties": {"id": 3, "name": "Kribi, Cameroon", "type": "point", "spatial_accuracy": "EXACT_LOCATION", "deal_id": 1151, "country": "Cameroon", "region": "Africa"}}, {"type": "Feature", "geometry": {"type": "Point", "coordinates": [10.58784, 3.71004]}, "properties": {"id": 4, "name": "Bidjoka, Cameroon", "type": "point", "spatial_accuracy": "EXACT_LOCATION", "deal_id": 1151, "country": "Cameroon", "region": "Africa"}}, {"type": "Feature", "geometry": {"type": "Point", "coordinates": [10.68595, 3.58659]}, "properties": {"id": 5, "name": "Eseka, Cameroon", "type": "point", "spatial_accuracy": "EXACT_LOCATION", "deal_id": 1151, "country": "Cameroon", "region": "Africa"}}, {"type": "Feature", "geometry": {"type": "Point", "coordinates": [34.86242, -19.20391]}, "properties": {"id": 1, "name": "Sofala, Mozambique", "type": "point", "spatial_accuracy": "ADMINISTRATIVE_REGION", "deal_id": 2382, "country": "Mozambique", "region": "Africa"}}, {"type": "Feature", "geometry": {"type": "Point", "coordinates": [33.59239, -11.89918]}, "properties": {"id": 1, "name": "Mzimba, Malawi", "type": "point", "spatial_accuracy": "ADMINISTRATIVE_REGION", "deal_id": 1647, "country": "Malawi", "region": "Africa"}}, {"type": "Feature", "geometry": {"type": "Point", "coordinates": [33.85508, -11.01719]}, "properties": {"id": 2, "name": "Rhumpi, Malawi", "type": "point", "spatial_accuracy": "ADMINISTRATIVE_REGION", "deal_id": 1647, "country": "Malawi", "region": "Africa"}}, {"type": "Feature", "geometry": {"type": "Point", "coordinates": [33.47198, -13.03568]}, "properties": {"id": 3, "name": "Kasungu, Malawi", "type": "point", "spatial_accuracy": "ADMINISTRATIVE_REGION", "deal_id": 1647, "country": "Malawi", "region": "Africa"}}, {"type": "Feature", "geometry": {"type": "Point", "coordinates": [35.2533, -14.48617]}, "properties": {"id": 4, "name": "Mangochi, Malawi", "type": "point", "spatial_accuracy": "ADMINISTRATIVE_REGION", "deal_id": 1647, "country": "Malawi", "region": "Africa"}}, {"type": "Feature", "geometry": {"type": "Point", "coordinates": [-8.66006, 5.49871]}, "properties": {"id": 1, "name": "Sinoe, Liberia", "type": "point", "spatial_accuracy": "ADMINISTRATIVE_REGION", "deal_id": 1395, "country": "Liberia", "region": "Africa"}}, {"type": "Feature", "geometry": {"type": "Point", "coordinates": [9.63684, 4.61626]}, "properties": {"id": 1, "name": "Malinkam, Cameroon", "type": "point", "spatial_accuracy": "EXACT_LOCATION", "deal_id": 1156, "country": "Cameroon", "region": "Africa"}}, {"type": "Feature", "geometry": {"type": "Point", "coordinates": [33.48333, -13.03333]}, "properties": {"id": 1, "name": "Kasungu, Malawi", "type": "point", "spatial_accuracy": "ADMINISTRATIVE_REGION", "deal_id": 1649, "country": "Malawi", "region": "Africa"}}, {"type": "Feature", "geometry": {"type": "Point", "coordinates": [33.78333, -13.98333]}, "properties": {"id": 2, "name": "Lilongwe, Malawi", "type": "point", "spatial_accuracy": "ADMINISTRATIVE_REGION", "deal_id": 1649, "country": "Malawi", "region": "Africa"}}, {"type": "Feature", "geometry": {"type": "Point", "coordinates": [36.26308, -10.68787]}, "properties": {"id": 1, "name": "Ruvuma, Tanzania", "type": "point", "spatial_accuracy": "ADMINISTRATIVE_REGION", "deal_id": 1910, "country": "Tanzania", "region": "Africa"}}, {"type": "Feature", "geometry": {"type": "Point", "coordinates": [10.08073, 4.16821]}, "properties": {"id": 1, "name": "Littoral Region, Cameroon", "type": "point", "spatial_accuracy": "ADMINISTRATIVE_REGION", "deal_id": 1157, "country": "Cameroon", "region": "Africa"}}, {"type": "Feature", "geometry": {"type": "Point", "coordinates": [9.27856, 4.09725]}, "properties": {"id": 2, "name": "Fako, Cameroon", "type": "point", "spatial_accuracy": "ADMINISTRATIVE_REGION", "deal_id": 1157, "country": "Cameroon", "region": "Africa"}}, {"type": "Feature", "geometry": {"type": "Point", "coordinates": [34.30152, -13.25431]}, "properties": {"id": 1, "name": "Malawi", "type": "point", "spatial_accuracy": "COUNTRY", "deal_id": 1651, "country": "Malawi", "region": "Africa"}}, {"type": "Feature", "geometry": {"type": "Point", "coordinates": [34.84917, -18.7199]}, "properties": {"id": 1, "name": "Condu\u00e9, Mozambique", "type": "point", "spatial_accuracy": "ADMINISTRATIVE_REGION", "deal_id": 2383, "country": "Mozambique", "region": "Africa"}}, {"type": "Feature", "geometry": {"type": "Point", "coordinates": [-6.05748, 13.89205]}, "properties": {"id": 1, "name": "M-B\u00e9wani Mali", "type": "point", "spatial_accuracy": "EXACT_LOCATION", "deal_id": 5059, "country": "Mali", "region": "Africa"}}, {"type": "Feature", "geometry": {"type": "Point", "coordinates": [14.43333, 8.01667]}, "properties": {"id": 1, "name": "Ba\u00ef, Cameroon", "type": "point", "spatial_accuracy": "ADMINISTRATIVE_REGION", "deal_id": 1158, "country": "Cameroon", "region": "Africa"}}, {"type": "Feature", "geometry": {"type": "Point", "coordinates": [9.01289, 4.83343]}, "properties": {"id": 2, "name": "Ndian, Cameroon", "type": "point", "spatial_accuracy": "ADMINISTRATIVE_REGION", "deal_id": 1158, "country": "Cameroon", "region": "Africa"}}, {"type": "Feature", "geometry": {"type": "Point", "coordinates": [8.91667, 4.71667]}, "properties": {"id": 3, "name": "Loe, Cameroon", "type": "point", "spatial_accuracy": "ADMINISTRATIVE_REGION", "deal_id": 1158, "country": "Cameroon", "region": "Africa"}}, {"type": "Feature", "geometry": {"type": "Point", "coordinates": [8.98333, 4.65]}, "properties": {"id": 4, "name": "Kita, Cameroon", "type": "point", "spatial_accuracy": "ADMINISTRATIVE_REGION", "deal_id": 1158, "country": "Cameroon", "region": "Africa"}}, {"type": "Feature", "geometry": {"type": "Point", "coordinates": [17.91822, -26.94516]}, "properties": {"id": 1, "name": "Naute, Namibia", "type": "point", "spatial_accuracy": "EXACT_LOCATION", "deal_id": 1652, "country": "Namibia", "region": "Africa"}}, {"type": "Feature", "geometry": {"type": "Point", "coordinates": [-9.07923, 5.14092]}, "properties": {"id": 1, "name": "Butaw, Liberia", "type": "point", "spatial_accuracy": "EXACT_LOCATION", "deal_id": 1396, "country": "Liberia", "region": "Africa"}}, {"type": "Feature", "geometry": {"type": "Point", "coordinates": [-7.90834, 4.5596]}, "properties": {"id": 2, "name": "Garraway, Liberia", "type": "point", "spatial_accuracy": "EXACT_LOCATION", "deal_id": 1396, "country": "Liberia", "region": "Africa"}}, {"type": "Feature", "geometry": {"type": "Point", "coordinates": [-7.74167, 4.72589]}, "properties": {"id": 3, "name": "Maryland, Liberia", "type": "point", "spatial_accuracy": "ADMINISTRATIVE_REGION", "deal_id": 1396, "country": "Liberia", "region": "Africa"}}, {"type": "Feature", "geometry": {"type": "Point", "coordinates": [-9.45615, 5.90253]}, "properties": {"id": 4, "name": "River Cess, Liberia", "type": "point", "spatial_accuracy": "ADMINISTRATIVE_REGION", "deal_id": 1396, "country": "Liberia", "region": "Africa"}}, {"type": "Feature", "geometry": {"type": "Point", "coordinates": [-7.87216, 5.26049]}, "properties": {"id": 5, "name": "River Gee, Liberia", "type": "point", "spatial_accuracy": "ADMINISTRATIVE_REGION", "deal_id": 1396, "country": "Liberia", "region": "Africa"}}, {"type": "Feature", "geometry": {"type": "Point", "coordinates": [32.48205, -3.22299]}, "properties": {"id": 1, "name": "Bubada, Tanzania", "type": "point", "spatial_accuracy": "COORDINATES", "deal_id": 4768, "country": "Tanzania", "region": "Africa"}}, {"type": "Feature", "geometry": {"type": "Point", "coordinates": [38.8996, -6.44578]}, "properties": {"id": 1, "name": "Bagamoyo, Tanzania", "type": "point", "spatial_accuracy": "ADMINISTRATIVE_REGION", "deal_id": 1917, "country": "Tanzania", "region": "Africa"}}, {"type": "Feature", "geometry": {"type": "Point", "coordinates": [31.70421, 2.86402]}, "properties": {"id": 1, "name": "Kilak, Amuru", "type": "point", "spatial_accuracy": "COORDINATES", "deal_id": 7415, "country": "Uganda", "region": "Africa"}}, {"type": "Feature", "geometry": {"type": "Point", "coordinates": [32.9402, -24.46812]}, "properties": {"id": 1, "name": "Chokwe, Mozambique", "type": "point", "spatial_accuracy": "EXACT_LOCATION", "deal_id": 2385, "country": "Mozambique", "region": "Africa"}}, {"type": "Feature", "geometry": {"type": "Point", "coordinates": [15.00461, -1.98547]}, "properties": {"id": 1, "name": "Mengo, Congo", "type": "point", "spatial_accuracy": "ADMINISTRATIVE_REGION", "deal_id": 1160, "country": "Congo, Rep.", "region": "Africa"}}, {"type": "Feature", "geometry": {"type": "Point", "coordinates": [32.1746, -23.6548]}, "properties": {"id": 1, "name": "Limpopo National Park, Mozambique", "type": "point", "spatial_accuracy": "ADMINISTRATIVE_REGION", "deal_id": 2386, "country": "Mozambique", "region": "Africa"}}, {"type": "Feature", "geometry": {"type": "Point", "coordinates": [8.08167, 17.60779]}, "properties": {"id": 1, "name": "Niger", "type": "point", "spatial_accuracy": "COUNTRY", "deal_id": 1657, "country": "Niger", "region": "Africa"}}, {"type": "Feature", "geometry": {"type": "Point", "coordinates": [-5.32332, 35.68058]}, "properties": {"id": 1, "name": "M'diq 93200, Morocco", "type": "point", "spatial_accuracy": "ADMINISTRATIVE_REGION", "deal_id": 1405, "country": "Morocco", "region": "Africa"}}, {"type": "Feature", "geometry": {"type": "Point", "coordinates": [33.65, -25.05]}, "properties": {"id": 1, "name": "Xai-Xai District, Mozambique", "type": "point", "spatial_accuracy": "ADMINISTRATIVE_REGION", "deal_id": 3924, "country": "Mozambique", "region": "Africa"}}, {"type": "Feature", "geometry": {"type": "Point", "coordinates": [34.15319, 11.58601]}, "properties": {"id": 1, "name": "Blue Nile, Sudan", "type": "point", "spatial_accuracy": "ADMINISTRATIVE_REGION", "deal_id": 3263, "country": "Sudan", "region": "Africa"}}, {"type": "Feature", "geometry": {"type": "Point", "coordinates": [32.71814, -23.02219]}, "properties": {"id": 1, "name": "Gaza Province, Mozambique", "type": "point", "spatial_accuracy": "ADMINISTRATIVE_REGION", "deal_id": 2387, "country": "Mozambique", "region": "Africa"}}, {"type": "Feature", "geometry": {"type": "Point", "coordinates": [-10.31176, 6.57695]}, "properties": {"id": 1, "name": "Kakata, Liberia", "type": "point", "spatial_accuracy": "COORDINATES", "deal_id": 3458, "country": "Liberia", "region": "Africa"}}, {"type": "Feature", "geometry": {"type": "Point", "coordinates": [3.44667, 11.88778]}, "properties": {"id": 1, "name": "Gaya, Niger", "type": "point", "spatial_accuracy": "ADMINISTRATIVE_REGION", "deal_id": 1659, "country": "Niger", "region": "Africa"}}, {"type": "Feature", "geometry": {"type": "Point", "coordinates": [14.84862, -0.01942]}, "properties": {"id": 1, "name": "Etoumbi, Congo", "type": "point", "spatial_accuracy": "ADMINISTRATIVE_REGION", "deal_id": 1165, "country": "Congo, Rep.", "region": "Africa"}}, {"type": "Feature", "geometry": {"type": "Point", "coordinates": [15.92189, -0.52307]}, "properties": {"id": 2, "name": "Owando, Congo", "type": "point", "spatial_accuracy": "ADMINISTRATIVE_REGION", "deal_id": 1165, "country": "Congo, Rep.", "region": "Africa"}}, {"type": "Feature", "geometry": {"type": "Point", "coordinates": [16.06673, 0.66419]}, "properties": {"id": 3, "name": "Kandeko, Congo", "type": "point", "spatial_accuracy": "ADMINISTRATIVE_REGION", "deal_id": 1165, "country": "Congo, Rep.", "region": "Africa"}}, {"type": "Feature", "geometry": {"type": "Point", "coordinates": [15.24326, -4.27044]}, "properties": {"id": 4, "name": "Rue MAKOLA, Brazzaville, Congo", "type": "point", "spatial_accuracy": "ADMINISTRATIVE_REGION", "deal_id": 1165, "country": "Congo, Rep.", "region": "Africa"}}, {"type": "Feature", "geometry": {"type": "Point", "coordinates": [32.66181, -3.85331]}, "properties": {"id": 1, "name": "Buzwagi, Tanzania", "type": "point", "spatial_accuracy": "EXACT_LOCATION", "deal_id": 4769, "country": "Tanzania", "region": "Africa"}}, {"type": "Feature", "geometry": {"type": "Point", "coordinates": [32.9832, -24.53232]}, "properties": {"id": 1, "name": "Chokwe, Mozambique", "type": "point", "spatial_accuracy": "ADMINISTRATIVE_REGION", "deal_id": 5060, "country": "Mozambique", "region": "Africa"}}, {"type": "Feature", "geometry": {"type": "Point", "coordinates": [35.36857, 14.02431]}, "properties": {"id": 1, "name": "Al Qadarif, Sudan", "type": "point", "spatial_accuracy": "ADMINISTRATIVE_REGION", "deal_id": 3265, "country": "Sudan", "region": "Africa"}}, {"type": "Feature", "geometry": {"type": "Point", "coordinates": [0.75566, 14.00316]}, "properties": {"id": 1, "name": "Tera, Niger", "type": "point", "spatial_accuracy": "ADMINISTRATIVE_REGION", "deal_id": 1661, "country": "Niger", "region": "Africa"}}, {"type": "Feature", "geometry": {"type": "Point", "coordinates": [15.39968, 0.42362]}, "properties": {"id": 1, "name": "Epoma, Republic of the Congo", "type": "point", "spatial_accuracy": "EXACT_LOCATION", "deal_id": 1166, "country": "Congo, Rep.", "region": "Africa"}}, {"type": "Feature", "geometry": {"type": "Point", "coordinates": [16.0667, -0.32955]}, "properties": {"id": 2, "name": "Owando, Republic of the Congo", "type": "point", "spatial_accuracy": "EXACT_LOCATION", "deal_id": 1166, "country": "Congo, Rep.", "region": "Africa"}}, {"type": "Feature", "geometry": {"type": "Point", "coordinates": [48.22443, -18.9489]}, "properties": {"id": 1, "name": "Moramanga, Madagascar", "type": "point", "spatial_accuracy": "ADMINISTRATIVE_REGION", "deal_id": 1412, "country": "Madagascar", "region": "Africa"}}, {"type": "Feature", "geometry": {"type": "Point", "coordinates": [12.50472, -3.74389]}, "properties": {"id": 1, "name": "Niari, Congo", "type": "point", "spatial_accuracy": "COORDINATES", "deal_id": 1167, "country": "Congo, Rep.", "region": "Africa"}}, {"type": "Feature", "geometry": {"type": "Point", "coordinates": [-9.74857, 6.11344]}, "properties": {"id": 1, "name": "Buchanan, Liberia", "type": "point", "spatial_accuracy": "EXACT_LOCATION", "deal_id": 3460, "country": "Liberia", "region": "Africa"}}, {"type": "Feature", "geometry": {"type": "Point", "coordinates": [44.39929, -23.14853]}, "properties": {"id": 1, "name": "Atsimo-Andrefana, Madagascar", "type": "point", "spatial_accuracy": "ADMINISTRATIVE_REGION", "deal_id": 1414, "country": "Madagascar", "region": "Africa"}}, {"type": "Feature", "geometry": {"type": "Point", "coordinates": [35.37405, -23.32666]}, "properties": {"id": 1, "name": "Massinga, Mozambique", "type": "point", "spatial_accuracy": "ADMINISTRATIVE_REGION", "deal_id": 5061, "country": "Mozambique", "region": "Africa"}}, {"type": "Feature", "geometry": {"type": "Point", "coordinates": [31.31872, 22.66297]}, "properties": {"id": 1, "name": "Toshka, Aswan Governorate, Egypt", "type": "point", "spatial_accuracy": "EXACT_LOCATION", "deal_id": 1172, "country": "Egypt, Arab Rep.", "region": "Africa"}}, {"type": "Feature", "geometry": {"type": "Point", "coordinates": [39.05585, 8.43622]}, "properties": {"id": 1, "name": "Koka Nagawo, Ethiopia", "type": "point", "spatial_accuracy": "ADMINISTRATIVE_REGION", "deal_id": 3925, "country": "Ethiopia", "region": "Africa"}}, {"type": "Feature", "geometry": {"type": "Point", "coordinates": [28.43924, 22.55736]}, "properties": {"id": 1, "name": "Sharq al Owainat, Egypt", "type": "point", "spatial_accuracy": "EXACT_LOCATION", "deal_id": 1173, "country": "Egypt, Arab Rep.", "region": "Africa"}}, {"type": "Feature", "geometry": {"type": "Point", "coordinates": [35.27454, -7.99819]}, "properties": {"id": 1, "name": "Iringa, Tanzania", "type": "point", "spatial_accuracy": "EXACT_LOCATION", "deal_id": 1938, "country": "Tanzania", "region": "Africa"}}, {"type": "Feature", "geometry": {"type": "Point", "coordinates": [32.73132, 26.15665]}, "properties": {"id": 1, "name": "Luxor, Qism Qena, Qena, Qena Governorate, Egypt", "type": "point", "spatial_accuracy": "ADMINISTRATIVE_REGION", "deal_id": 1175, "country": "Egypt, Arab Rep.", "region": "Africa"}}, {"type": "Feature", "geometry": {"type": "Point", "coordinates": [31.90394, 22.46871]}, "properties": {"id": 1, "name": "Toshka, Aswan, Egypt", "type": "point", "spatial_accuracy": "ADMINISTRATIVE_REGION", "deal_id": 1176, "country": "Egypt, Arab Rep.", "region": "Africa"}}, {"type": "Feature", "geometry": {"type": "Point", "coordinates": [27.17353, 24.54556]}, "properties": {"id": 2, "name": "New Valley Governorate, Egypt", "type": "point", "spatial_accuracy": "ADMINISTRATIVE_REGION", "deal_id": 1176, "country": "Egypt, Arab Rep.", "region": "Africa"}}, {"type": "Feature", "geometry": {"type": "Point", "coordinates": [34.86242, -19.20391]}, "properties": {"id": 1, "name": "Sofala, Mozambique", "type": "point", "spatial_accuracy": "ADMINISTRATIVE_REGION", "deal_id": 5062, "country": "Mozambique", "region": "Africa"}}, {"type": "Feature", "geometry": {"type": "Point", "coordinates": [34.5557, -1.42472]}, "properties": {"id": 1, "name": "Tarime District, Tanzania", "type": "point", "spatial_accuracy": "EXACT_LOCATION", "deal_id": 4770, "country": "Tanzania", "region": "Africa"}}, {"type": "Feature", "geometry": {"type": "Point", "coordinates": [38.37562, -8.10215]}, "properties": {"id": 1, "name": "Rufiji River, Tanzania", "type": "point", "spatial_accuracy": "ADMINISTRATIVE_REGION", "deal_id": 2398, "country": "Tanzania", "region": "Africa"}}, {"type": "Feature", "geometry": {"type": "Point", "coordinates": [39.09876, -5.06949]}, "properties": {"id": 1, "name": "Tanga, Tanzania", "type": "point", "spatial_accuracy": "ADMINISTRATIVE_REGION", "deal_id": 1948, "country": "Tanzania", "region": "Africa"}}, {"type": "Feature", "geometry": {"type": "Point", "coordinates": [-5.20231, 9.59405]}, "properties": {"id": 1, "name": "Ferkess\u00e9dougou, C\u00f4te d'Ivoire", "type": "point", "spatial_accuracy": "ADMINISTRATIVE_REGION", "deal_id": 3269, "country": "C\u00f4te d'Ivoire", "region": "Africa"}}, {"type": "Feature", "geometry": {"type": "Point", "coordinates": [31.57497, 23.1969]}, "properties": {"id": 1, "name": "Toshka, Aswan, Egypt", "type": "point", "spatial_accuracy": "EXACT_LOCATION", "deal_id": 1181, "country": "Egypt, Arab Rep.", "region": "Africa"}}, {"type": "Feature", "geometry": {"type": "Point", "coordinates": [7.87216, 4.92999]}, "properties": {"id": 1, "name": "Akwa Ibom, Nigeria", "type": "point", "spatial_accuracy": "ADMINISTRATIVE_REGION", "deal_id": 1669, "country": "Nigeria", "region": "Africa"}}, {"type": "Feature", "geometry": {"type": "Point", "coordinates": [6.92091, 4.85808]}, "properties": {"id": 2, "name": "Rivers, Nigeria", "type": "point", "spatial_accuracy": "ADMINISTRATIVE_REGION", "deal_id": 1669, "country": "Nigeria", "region": "Africa"}}, {"type": "Feature", "geometry": {"type": "Point", "coordinates": [7.52472, 5.43089]}, "properties": {"id": 3, "name": "Abia, Nigeria", "type": "point", "spatial_accuracy": "ADMINISTRATIVE_REGION", "deal_id": 1669, "country": "Nigeria", "region": "Africa"}}, {"type": "Feature", "geometry": {"type": "Point", "coordinates": [7.87216, 4.92999]}, "properties": {"id": 4, "name": "Akwa Ibom, Nigeria", "type": "point", "spatial_accuracy": "ADMINISTRATIVE_REGION", "deal_id": 1669, "country": "Nigeria", "region": "Africa"}}, {"type": "Feature", "geometry": {"type": "Point", "coordinates": [8.66006, 6.16703]}, "properties": {"id": 5, "name": "Cross River, Nigeria", "type": "point", "spatial_accuracy": "ADMINISTRATIVE_REGION", "deal_id": 1669, "country": "Nigeria", "region": "Africa"}}, {"type": "Feature", "geometry": {"type": "Point", "coordinates": [6.92091, 4.85808]}, "properties": {"id": 6, "name": "Rivers, Nigeria", "type": "point", "spatial_accuracy": "ADMINISTRATIVE_REGION", "deal_id": 1669, "country": "Nigeria", "region": "Africa"}}, {"type": "Feature", "geometry": {"type": "Point", "coordinates": [7.52472, 5.43089]}, "properties": {"id": 7, "name": "Abia, Nigeria", "type": "point", "spatial_accuracy": "ADMINISTRATIVE_REGION", "deal_id": 1669, "country": "Nigeria", "region": "Africa"}}, {"type": "Feature", "geometry": {"type": "Point", "coordinates": [7.87216, 4.92999]}, "properties": {"id": 8, "name": "Akwa Ibom, Nigeria", "type": "point", "spatial_accuracy": "ADMINISTRATIVE_REGION", "deal_id": 1669, "country": "Nigeria", "region": "Africa"}}, {"type": "Feature", "geometry": {"type": "Point", "coordinates": [46.6814, -16.1011]}, "properties": {"id": 1, "name": "Ankazomborona, Madagascar", "type": "point", "spatial_accuracy": "ADMINISTRATIVE_REGION", "deal_id": 1419, "country": "Madagascar", "region": "Africa"}}, {"type": "Feature", "geometry": {"type": "Point", "coordinates": [37.75, 16.96667]}, "properties": {"id": 1, "name": "Bisha, Eritrea", "type": "point", "spatial_accuracy": "ADMINISTRATIVE_REGION", "deal_id": 1184, "country": "Eritrea", "region": "Africa"}}, {"type": "Feature", "geometry": {"type": "Point", "coordinates": [38.37562, -8.10215]}, "properties": {"id": 1, "name": "Rufiji River, Tanzania", "type": "point", "spatial_accuracy": "ADMINISTRATIVE_REGION", "deal_id": 2399, "country": "Tanzania", "region": "Africa"}}, {"type": "Feature", "geometry": {"type": "Point", "coordinates": [48.23, -18.95]}, "properties": {"id": 1, "name": "Moramanga, Madagascar", "type": "point", "spatial_accuracy": "ADMINISTRATIVE_REGION", "deal_id": 1422, "country": "Madagascar", "region": "Africa"}}, {"type": "Feature", "geometry": {"type": "Point", "coordinates": [8.67528, 9.082]}, "properties": {"id": 1, "name": "Nigeria", "type": "point", "spatial_accuracy": "COUNTRY", "deal_id": 1675, "country": "Nigeria", "region": "Africa"}}, {"type": "Feature", "geometry": {"type": "Point", "coordinates": [32.39001, 2.74998]}, "properties": {"id": 1, "name": "Labora, Uganda", "type": "point", "spatial_accuracy": "ADMINISTRATIVE_REGION", "deal_id": 1952, "country": "Uganda", "region": "Africa"}}, {"type": "Feature", "geometry": {"type": "Point", "coordinates": [7.52472, 5.43089]}, "properties": {"id": 1, "name": "Abia, Nigeria", "type": "point", "spatial_accuracy": "ADMINISTRATIVE_REGION", "deal_id": 1679, "country": "Nigeria", "region": "Africa"}}, {"type": "Feature", "geometry": {"type": "Point", "coordinates": [-7.61532, 4.58471]}, "properties": {"id": 1, "name": "Pleebo, Liberia", "type": "point", "spatial_accuracy": "EXACT_LOCATION", "deal_id": 3463, "country": "Liberia", "region": "Africa"}}, {"type": "Feature", "geometry": {"type": "Point", "coordinates": [6.93165, 5.15759]}, "properties": {"id": 1, "name": "SIAT Nigeria Limited, Nigeria", "type": "point", "spatial_accuracy": "EXACT_LOCATION", "deal_id": 1680, "country": "Nigeria", "region": "Africa"}}, {"type": "Feature", "geometry": {"type": "Point", "coordinates": [46.51626, -21.33909]}, "properties": {"id": 1, "name": "Haute Matsiatra, Madagascar", "type": "point", "spatial_accuracy": "ADMINISTRATIVE_REGION", "deal_id": 1425, "country": "Madagascar", "region": "Africa"}}, {"type": "Feature", "geometry": {"type": "Point", "coordinates": [40.63469, 7.54604]}, "properties": {"id": 1, "name": "Oromia, Ethiopia", "type": "point", "spatial_accuracy": "ADMINISTRATIVE_REGION", "deal_id": 1189, "country": "Ethiopia", "region": "Africa"}}, {"type": "Feature", "geometry": {"type": "Point", "coordinates": [39.65182, 7.93399]}, "properties": {"id": 1, "name": "Arsi, Ethiopia", "type": "point", "spatial_accuracy": "ADMINISTRATIVE_REGION", "deal_id": 1192, "country": "Ethiopia", "region": "Africa"}}, {"type": "Feature", "geometry": {"type": "Point", "coordinates": [5.89871, 6.54381]},